{"type":"FeatureCollection","features":[{"id":"0","type":"Feature","properties":{"Sport/Activity":"Basketball (3x3)","LA28 Venue Region":"Valley Sports Park","LA28 Venue Name":"Sepulveda Basin Recreation Area","Venue Common Name":"Sepulveda Basin River Recreation Zone","City":"Encino, CA","Notes":null,"x":-118.4898898,"y":34.17663423,"layer_id":"la28_venues","feature_name":"Olympic Venue"},"geometry":{"type":"Point","coordinates":[-118.48989,34.176634]}},{"id":"1","type":"Feature","properties":{"Sport/Activity":"Archery","LA28 Venue Region":"South Bay Sports Park","LA28 Venue Name":"Stadium Carson","Venue Common Name":"Dignity Health Sports Park (Stadium)","City":"Carson, CA","Notes":null,"x":-118.2608744,"y":33.86454694,"layer_id":"la28_venues","feature_name":"Olympic Venue"},"geometry":{"type":"Point","coordinates":[-118.260874,33.864547]}},{"id":"2","type":"Feature","properties":{"Sport/Activity":"Artistic Swimming","LA28 Venue Region":"Long Beach Sports Park","LA28 Venue Name":"Convention Center Lot Long Beach","Venue Common Name":"Long Beach Convention Center","City":"Long Beach, CA","Notes":null,"x":-118.1891435,"y":33.7649074,"layer_id":"la28_venues","feature_name":"Olympic Venue"},"geometry":{"type":"Point","coordinates":[-118.189144,33.764907]}},{"id":"3","type":"Feature","properties":{"Sport/Activity":"Athletics (track & field)","LA28 Venue Region":"Expo Park/USC","LA28 Venue Name":"LA Memorial Coliseum","Venue Common Name":"LA Memorial Coliseum","City":"Los Angeles, CA","Notes":null,"x":-118.2876102,"y":34.01386032,"layer_id":"la28_venues","feature_name":"Olympic Venue"},"geometry":{"type":"Point","coordinates":[-118.28761,34.01386]}},{"id":"4","type":"Feature","properties":{"Sport/Activity":"Badminton","LA28 Venue Region":"Expo Park/USC","LA28 Venue Name":"USC Sports Center","Venue Common Name":"USC Galen Center","City":"Los Angeles, CA","Notes":null,"x":-118.2799961,"y":34.02122505,"layer_id":"la28_venues","feature_name":"Olympic Venue"},"geometry":{"type":"Point","coordinates":[-118.279996,34.021225]}},{"id":"5","type":"Feature","properties":{"Sport/Activity":"Baseball","LA28 Venue Region":"Southern California","LA28 Venue Name":"Dodger Stadium","Venue Common Name":"Dodger Stadium","City":"Los Angeles, CA","Notes":null,"x":-118.2396579,"y":34.07413535,"layer_id":"la28_venues","feature_name":"Olympic Venue"},"geometry":{"type":"Point","coordinates":[-118.239658,34.074135]}},{"id":"6","type":"Feature","properties":{"Sport/Activity":"Basketball","LA28 Venue Region":"Westside","LA28 Venue Name":"Inglewood Arena","Venue Common Name":"Intuit Dome","City":"Inglewood, CA","Notes":null,"x":-118.3421878,"y":33.94401188,"layer_id":"la28_venues","feature_name":"Olympic Venue"},"geometry":{"type":"Point","coordinates":[-118.342188,33.944012]}},{"id":"7","type":"Feature","properties":{"Sport/Activity":"Beach Volleyball","LA28 Venue Region":"Long Beach Sports Park","LA28 Venue Name":"Alamitos Beach, Long Beach","Venue Common Name":"Alamitos Beach","City":"Long Beach, CA","Notes":null,"x":-118.1768792,"y":33.76412844,"layer_id":"la28_venues","feature_name":"Olympic Venue"},"geometry":{"type":"Point","coordinates":[-118.176879,33.764128]}},{"id":"8","type":"Feature","properties":{"Sport/Activity":"Boxing (Finals)","LA28 Venue Region":"L.A. Live","LA28 Venue Name":"Arena Downtown Los Angeles","Venue Common Name":"Crypto.com Arena","City":"Los Angeles, CA","Notes":null,"x":-118.2672541,"y":34.0432664,"layer_id":"la28_venues","feature_name":"Olympic Venue"},"geometry":{"type":"Point","coordinates":[-118.267254,34.043266]}},{"id":"9","type":"Feature","properties":{"Sport/Activity":"Boxing (Preliminaries)","LA28 Venue Region":"L.A. Live","LA28 Venue Name":"Peacock Theater","Venue Common Name":"Peacock Theater","City":"Los Angeles, CA","Notes":null,"x":-118.2670503,"y":34.04457323,"layer_id":"la28_venues","feature_name":"Olympic Venue"},"geometry":{"type":"Point","coordinates":[-118.26705,34.044573]}},{"id":"10","type":"Feature","properties":{"Sport/Activity":"Canoe Sprint","LA28 Venue Region":"Long Beach Sports Park","LA28 Venue Name":"Waterfront Long Beach","Venue Common Name":"Marine Stadium","City":"Long Beach, CA","Notes":null,"x":-118.119566,"y":33.76162687,"layer_id":"la28_venues","feature_name":"Olympic Venue"},"geometry":{"type":"Point","coordinates":[-118.119566,33.761627]}},{"id":"11","type":"Feature","properties":{"Sport/Activity":"Cricket","LA28 Venue Region":"Southern California","LA28 Venue Name":"Fairgrounds Pomona","Venue Common Name":"Fairplex","City":"Pomona, CA","Notes":null,"x":-117.7610665,"y":34.08877141,"layer_id":"la28_venues","feature_name":"Olympic Venue"},"geometry":{"type":"Point","coordinates":[-117.761066,34.088771]}},{"id":"12","type":"Feature","properties":{"Sport/Activity":"Cycling Track","LA28 Venue Region":"South Bay Sports Park","LA28 Venue Name":"Velodrome Carson","Venue Common Name":"Dignity Health Sports Park (Velo Sports Center)","City":"Carson, CA","Notes":null,"x":-118.2592144,"y":33.85921222,"layer_id":"la28_venues","feature_name":"Olympic Venue"},"geometry":{"type":"Point","coordinates":[-118.259214,33.859212]}},{"id":"13","type":"Feature","properties":{"Sport/Activity":"Diving","LA28 Venue Region":"Expo Park/USC","LA28 Venue Name":"1932 Pool at Expo Park","Venue Common Name":"LA84 Foundation/John C. Argue Swim Stadium","City":"Los Angeles, CA","Notes":null,"x":-118.2893524,"y":34.01258134,"layer_id":"la28_venues","feature_name":"Olympic Venue"},"geometry":{"type":"Point","coordinates":[-118.289352,34.012581]}},{"id":"14","type":"Feature","properties":{"Sport/Activity":"Equestrian","LA28 Venue Region":"Southern California","LA28 Venue Name":"Santa Anita Park","Venue Common Name":"Santa Anita Park","City":"Arcadia, CA","Notes":null,"x":-118.0451925,"y":34.13939933,"layer_id":"la28_venues","feature_name":"Olympic Venue"},"geometry":{"type":"Point","coordinates":[-118.045192,34.139399]}},{"id":"15","type":"Feature","properties":{"Sport/Activity":"Fencing","LA28 Venue Region":"L.A. Live","LA28 Venue Name":"Convention Center Downtown Los Angeles","Venue Common Name":"Los Angeles Convention Center","City":"Los Angeles, CA","Notes":null,"x":-118.2694337,"y":34.04038291,"layer_id":"la28_venues","feature_name":"Olympic Venue"},"geometry":{"type":"Point","coordinates":[-118.269434,34.040383]}},{"id":"16","type":"Feature","properties":{"Sport/Activity":"Field Hockey","LA28 Venue Region":"South Bay Sports Park","LA28 Venue Name":"Fields Carson","Venue Common Name":"Dignity Health Sports Park (Track & Field Facility)","City":"Carson, CA","Notes":null,"x":-118.2607473,"y":33.86435573,"layer_id":"la28_venues","feature_name":"Olympic Venue"},"geometry":{"type":"Point","coordinates":[-118.260747,33.864356]}},{"id":"17","type":"Feature","properties":{"Sport/Activity":"Flag Football","LA28 Venue Region":"Expo Park/USC","LA28 Venue Name":"Stadium in Exposition Park","Venue Common Name":"BMO Stadium","City":"Los Angeles, CA","Notes":"New Sport","x":-118.2840214,"y":34.01297204,"layer_id":"la28_venues","feature_name":"Olympic Venue"},"geometry":{"type":"Point","coordinates":[-118.284021,34.012972]}},{"id":"18","type":"Feature","properties":{"Sport/Activity":"Football (Soccer)","LA28 Venue Region":"Southern California","LA28 Venue Name":"Rose Bowl Stadium","Venue Common Name":"Rose Bowl","City":"Pasadena, CA","Notes":null,"x":-118.1672814,"y":34.16152368,"layer_id":"la28_venues","feature_name":"Olympic Venue"},"geometry":{"type":"Point","coordinates":[-118.167281,34.161524]}},{"id":"19","type":"Feature","properties":{"Sport/Activity":"Golf","LA28 Venue Region":"Westside","LA28 Venue Name":"Riviera Country Club","Venue Common Name":"Riviera Country Club","City":"Palisades, CA","Notes":null,"x":-118.50231,"y":34.04997989,"layer_id":"la28_venues","feature_name":"Olympic Venue"},"geometry":{"type":"Point","coordinates":[-118.50231,34.04998]}},{"id":"20","type":"Feature","properties":{"Sport/Activity":"Handball","LA28 Venue Region":"Long Beach Sports Park","LA28 Venue Name":"Arena Long Beach","Venue Common Name":"Long Beach Arena","City":"Long Beach, CA","Notes":null,"x":-118.1882069,"y":33.76431139,"layer_id":"la28_venues","feature_name":"Olympic Venue"},"geometry":{"type":"Point","coordinates":[-118.188207,33.764311]}},{"id":"21","type":"Feature","properties":{"Sport/Activity":"International Broadcast Center","LA28 Venue Region":"Westside","LA28 Venue Name":"Hollywood Park Studios","Venue Common Name":"Hollywood Park","City":"Inglewood, CA","Notes":"Studios under development at \"Hollywood Park\"","x":-118.3373509,"y":33.95390143,"layer_id":"la28_venues","feature_name":"Olympic Venue"},"geometry":{"type":"Point","coordinates":[-118.337351,33.953901]}},{"id":"22","type":"Feature","properties":{"Sport/Activity":"Marathon","LA28 Venue Region":"Westside","LA28 Venue Name":"Venice Beach ","Venue Common Name":"Venice Beach","City":"Venice, CA","Notes":"Start will be venice beach, undetermined on full route","x":-118.4812906,"y":33.99350006,"layer_id":"la28_venues","feature_name":"Olympic Venue"},"geometry":{"type":"Point","coordinates":[-118.481291,33.9935]}},{"id":"23","type":"Feature","properties":{"Sport/Activity":"Media Village/Main Press Center","LA28 Venue Region":"Expo Park/USC","LA28 Venue Name":"USC","Venue Common Name":"USC Village","City":"Los Angeles, CA","Notes":null,"x":-118.2841102,"y":34.02481527,"layer_id":"la28_venues","feature_name":"Olympic Venue"},"geometry":{"type":"Point","coordinates":[-118.28411,34.024815]}},{"id":"24","type":"Feature","properties":{"Sport/Activity":"Olympic Village & Olympic Training Center","LA28 Venue Region":"Westside","LA28 Venue Name":"UCLA","Venue Common Name":"UCLA","City":"Los Angeles CA","Notes":null,"x":-118.444622,"y":34.07004259,"layer_id":"la28_venues","feature_name":"Olympic Venue"},"geometry":{"type":"Point","coordinates":[-118.444622,34.070043]}},{"id":"25","type":"Feature","properties":{"Sport/Activity":"Opening Ceremony","LA28 Venue Region":"Westside","LA28 Venue Name":"Inglewood Stadium","Venue Common Name":"Sofi Stadium","City":"Inglewood, CA","Notes":null,"x":-118.3390342,"y":33.95359217,"layer_id":"la28_venues","feature_name":"Olympic Venue"},"geometry":{"type":"Point","coordinates":[-118.339034,33.953592]}},{"id":"26","type":"Feature","properties":{"Sport/Activity":"Sailing","LA28 Venue Region":"Long Beach Sports Park","LA28 Venue Name":"Belmont Shore, Long Beach","Venue Common Name":"Belmont Veterans Memorial Pier","City":"Long Beach, CA","Notes":null,"x":-118.1487103,"y":33.75563614,"layer_id":"la28_venues","feature_name":"Olympic Venue"},"geometry":{"type":"Point","coordinates":[-118.14871,33.755636]}},{"id":"27","type":"Feature","properties":{"Sport/Activity":"Shooting (Shotgun)","LA28 Venue Region":"Southern California","LA28 Venue Name":"Shotgun Center South El Monte","Venue Common Name":"LA Clays","City":"South El Monte, CA","Notes":null,"x":-118.0685074,"y":34.03917386,"layer_id":"la28_venues","feature_name":"Olympic Venue"},"geometry":{"type":"Point","coordinates":[-118.068507,34.039174]}},{"id":"28","type":"Feature","properties":{"Sport/Activity":"Squash","LA28 Venue Region":"Southern California","LA28 Venue Name":"Universal Studios Lot","Venue Common Name":"Brokaw News Center/Universal Studios Lot","City":"Universal City, CA","Notes":null,"x":-118.3583871,"y":34.14203818,"layer_id":"la28_venues","feature_name":"Olympic Venue"},"geometry":{"type":"Point","coordinates":[-118.358387,34.142038]}},{"id":"29","type":"Feature","properties":{"Sport/Activity":"Surfing","LA28 Venue Region":"Southern California","LA28 Venue Name":"Trestles Beach","Venue Common Name":"Trestles Beach","City":"San Clemente, CA","Notes":null,"x":-117.5931205,"y":33.38587991,"layer_id":"la28_venues","feature_name":"Olympic Venue"},"geometry":{"type":"Point","coordinates":[-117.59312,33.38588]}},{"id":"30","type":"Feature","properties":{"Sport/Activity":"Tennis","LA28 Venue Region":"South Bay Sports Park","LA28 Venue Name":"Tennis Center Carson","Venue Common Name":"Dignity Health Sports Park (Tennis Stadium)","City":"Carson, CA","Notes":null,"x":-118.2608905,"y":33.86257395,"layer_id":"la28_venues","feature_name":"Olympic Venue"},"geometry":{"type":"Point","coordinates":[-118.260891,33.862574]}},{"id":"31","type":"Feature","properties":{"Sport/Activity":"Volleyball","LA28 Venue Region":"Southern California","LA28 Venue Name":"Anaheim Arena","Venue Common Name":"Honda Center","City":"Anaheim, CA","Notes":null,"x":-117.8765116,"y":33.80794563,"layer_id":"la28_venues","feature_name":"Olympic Venue"},"geometry":{"type":"Point","coordinates":[-117.876512,33.807946]}}]}