{
"type": "FeatureCollection",
"name": "bus_stops",
"crs": { "type": "name", "properties": { "name": "urn:ogc:def:crs:OGC:1.3:CRS84" } },
"features": [
{ "type": "Feature", "properties": { "STOPNUM": 40, "STOPNAME": "Hill / 5th", "LAT": 34.048591, "LONG": -118.251764, "LINE_DIR1": "10-W", "LINE_DIR2": "94-N", "LINE_DIR3": 0, "LINE_DIR4": 0, "LINE_DIR5": 0, "LINE_DIR6": 0, "LINE_DIR7": 0, "LINE_DIR8": 0, "LINE_DIR9": 0, "LINE_DIR10": 0, "LINE_DIR11": 0, "LINE_DIR12": 0, "LINE_DIR13": 0, "LINE_DIR14": 0, "layer_id": "bus_stops", "feature_name": "Bus Stop" }, "geometry": { "type": "Point", "coordinates": [ -118.251764, 34.048591 ] } },
{ "type": "Feature", "properties": { "STOPNUM": 42, "STOPNAME": "6th / Burlington", "LAT": 34.057874, "LONG": -118.270776, "LINE_DIR1": "18-W", "LINE_DIR2": null, "LINE_DIR3": 0, "LINE_DIR4": 0, "LINE_DIR5": 0, "LINE_DIR6": 0, "LINE_DIR7": 0, "LINE_DIR8": 0, "LINE_DIR9": 0, "LINE_DIR10": 0, "LINE_DIR11": 0, "LINE_DIR12": 0, "LINE_DIR13": 0, "LINE_DIR14": 0, "layer_id": "bus_stops", "feature_name": "Bus Stop" }, "geometry": { "type": "Point", "coordinates": [ -118.270776, 34.057874 ] } },
{ "type": "Feature", "properties": { "STOPNUM": 70, "STOPNAME": "El Monte Busway Layover", "LAT": 34.05449, "LONG": -118.237358, "LINE_DIR1": "487-E", "LINE_DIR2": "487-W", "LINE_DIR3": 0, "LINE_DIR4": 0, "LINE_DIR5": 0, "LINE_DIR6": 0, "LINE_DIR7": 0, "LINE_DIR8": 0, "LINE_DIR9": 0, "LINE_DIR10": 0, "LINE_DIR11": 0, "LINE_DIR12": 0, "LINE_DIR13": 0, "LINE_DIR14": 0, "layer_id": "bus_stops", "feature_name": "Bus Stop" }, "geometry": { "type": "Point", "coordinates": [ -118.237358, 34.05449 ] } },
{ "type": "Feature", "properties": { "STOPNUM": 73, "STOPNAME": "Alameda / Arcadia", "LAT": 34.054387, "LONG": -118.237945, "LINE_DIR1": "76-W", "LINE_DIR2": null, "LINE_DIR3": 0, "LINE_DIR4": 0, "LINE_DIR5": 0, "LINE_DIR6": 0, "LINE_DIR7": 0, "LINE_DIR8": 0, "LINE_DIR9": 0, "LINE_DIR10": 0, "LINE_DIR11": 0, "LINE_DIR12": 0, "LINE_DIR13": 0, "LINE_DIR14": 0, "layer_id": "bus_stops", "feature_name": "Bus Stop" }, "geometry": { "type": "Point", "coordinates": [ -118.237945, 34.054387 ] } },
{ "type": "Feature", "properties": { "STOPNUM": 99, "STOPNAME": "Olive / Olympic", "LAT": 34.042134, "LONG": -118.259555, "LINE_DIR1": "14-N", "LINE_DIR2": "78-E", "LINE_DIR3": 0, "LINE_DIR4": 0, "LINE_DIR5": 0, "LINE_DIR6": 0, "LINE_DIR7": 0, "LINE_DIR8": 0, "LINE_DIR9": 0, "LINE_DIR10": 0, "LINE_DIR11": 0, "LINE_DIR12": 0, "LINE_DIR13": 0, "LINE_DIR14": 0, "layer_id": "bus_stops", "feature_name": "Bus Stop" }, "geometry": { "type": "Point", "coordinates": [ -118.259555, 34.042134 ] } },
{ "type": "Feature", "properties": { "STOPNUM": 136, "STOPNAME": "Temple / Hill", "LAT": 34.056449, "LONG": -118.244214, "LINE_DIR1": "92-N", "LINE_DIR2": null, "LINE_DIR3": 0, "LINE_DIR4": 0, "LINE_DIR5": 0, "LINE_DIR6": 0, "LINE_DIR7": 0, "LINE_DIR8": 0, "LINE_DIR9": 0, "LINE_DIR10": 0, "LINE_DIR11": 0, "LINE_DIR12": 0, "LINE_DIR13": 0, "LINE_DIR14": 0, "layer_id": "bus_stops", "feature_name": "Bus Stop" }, "geometry": { "type": "Point", "coordinates": [ -118.244214, 34.056449 ] } },
{ "type": "Feature", "properties": { "STOPNUM": 267, "STOPNAME": "Hill / 3rd", "LAT": 34.05182, "LONG": -118.24911, "LINE_DIR1": "90-S", "LINE_DIR2": "94-S", "LINE_DIR3": 0, "LINE_DIR4": 0, "LINE_DIR5": 0, "LINE_DIR6": 0, "LINE_DIR7": 0, "LINE_DIR8": 0, "LINE_DIR9": 0, "LINE_DIR10": 0, "LINE_DIR11": 0, "LINE_DIR12": 0, "LINE_DIR13": 0, "LINE_DIR14": 0, "layer_id": "bus_stops", "feature_name": "Bus Stop" }, "geometry": { "type": "Point", "coordinates": [ -118.24911, 34.05182 ] } },
{ "type": "Feature", "properties": { "STOPNUM": 278, "STOPNAME": "Hill / 6th", "LAT": 34.047555, "LONG": -118.253101, "LINE_DIR1": "94-S", "LINE_DIR2": null, "LINE_DIR3": 0, "LINE_DIR4": 0, "LINE_DIR5": 0, "LINE_DIR6": 0, "LINE_DIR7": 0, "LINE_DIR8": 0, "LINE_DIR9": 0, "LINE_DIR10": 0, "LINE_DIR11": 0, "LINE_DIR12": 0, "LINE_DIR13": 0, "LINE_DIR14": 0, "layer_id": "bus_stops", "feature_name": "Bus Stop" }, "geometry": { "type": "Point", "coordinates": [ -118.253101, 34.047555 ] } },
{ "type": "Feature", "properties": { "STOPNUM": 383, "STOPNAME": "Bellevue / Glendale", "LAT": 34.07045, "LONG": -118.261138, "LINE_DIR1": "92-S", "LINE_DIR2": null, "LINE_DIR3": 0, "LINE_DIR4": 0, "LINE_DIR5": 0, "LINE_DIR6": 0, "LINE_DIR7": 0, "LINE_DIR8": 0, "LINE_DIR9": 0, "LINE_DIR10": 0, "LINE_DIR11": 0, "LINE_DIR12": 0, "LINE_DIR13": 0, "LINE_DIR14": 0, "layer_id": "bus_stops", "feature_name": "Bus Stop" }, "geometry": { "type": "Point", "coordinates": [ -118.261138, 34.07045 ] } },
{ "type": "Feature", "properties": { "STOPNUM": 384, "STOPNAME": "Bellevue / Laveta", "LAT": 34.069497, "LONG": -118.258494, "LINE_DIR1": "92-N", "LINE_DIR2": null, "LINE_DIR3": 0, "LINE_DIR4": 0, "LINE_DIR5": 0, "LINE_DIR6": 0, "LINE_DIR7": 0, "LINE_DIR8": 0, "LINE_DIR9": 0, "LINE_DIR10": 0, "LINE_DIR11": 0, "LINE_DIR12": 0, "LINE_DIR13": 0, "LINE_DIR14": 0, "layer_id": "bus_stops", "feature_name": "Bus Stop" }, "geometry": { "type": "Point", "coordinates": [ -118.258494, 34.069497 ] } },
{ "type": "Feature", "properties": { "STOPNUM": 407, "STOPNAME": "Beverly / Belmont", "LAT": 34.063647, "LONG": -118.263253, "LINE_DIR1": "14-N", "LINE_DIR2": null, "LINE_DIR3": 0, "LINE_DIR4": 0, "LINE_DIR5": 0, "LINE_DIR6": 0, "LINE_DIR7": 0, "LINE_DIR8": 0, "LINE_DIR9": 0, "LINE_DIR10": 0, "LINE_DIR11": 0, "LINE_DIR12": 0, "LINE_DIR13": 0, "LINE_DIR14": 0, "layer_id": "bus_stops", "feature_name": "Bus Stop" }, "geometry": { "type": "Point", "coordinates": [ -118.263253, 34.063647 ] } },
{ "type": "Feature", "properties": { "STOPNUM": 413, "STOPNAME": "Beverly / Alvarado", "LAT": 34.066696, "LONG": -118.270012, "LINE_DIR1": "14-N", "LINE_DIR2": null, "LINE_DIR3": 0, "LINE_DIR4": 0, "LINE_DIR5": 0, "LINE_DIR6": 0, "LINE_DIR7": 0, "LINE_DIR8": 0, "LINE_DIR9": 0, "LINE_DIR10": 0, "LINE_DIR11": 0, "LINE_DIR12": 0, "LINE_DIR13": 0, "LINE_DIR14": 0, "layer_id": "bus_stops", "feature_name": "Bus Stop" }, "geometry": { "type": "Point", "coordinates": [ -118.270012, 34.066696 ] } },
{ "type": "Feature", "properties": { "STOPNUM": 415, "STOPNAME": "Beverly / Benton", "LAT": 34.070078, "LONG": -118.277796, "LINE_DIR1": "14-N", "LINE_DIR2": null, "LINE_DIR3": 0, "LINE_DIR4": 0, "LINE_DIR5": 0, "LINE_DIR6": 0, "LINE_DIR7": 0, "LINE_DIR8": 0, "LINE_DIR9": 0, "LINE_DIR10": 0, "LINE_DIR11": 0, "LINE_DIR12": 0, "LINE_DIR13": 0, "LINE_DIR14": 0, "layer_id": "bus_stops", "feature_name": "Bus Stop" }, "geometry": { "type": "Point", "coordinates": [ -118.277796, 34.070078 ] } },
{ "type": "Feature", "properties": { "STOPNUM": 426, "STOPNAME": "Beverly / Park View", "LAT": 34.068204, "LONG": -118.274134, "LINE_DIR1": "14-S", "LINE_DIR2": null, "LINE_DIR3": 0, "LINE_DIR4": 0, "LINE_DIR5": 0, "LINE_DIR6": 0, "LINE_DIR7": 0, "LINE_DIR8": 0, "LINE_DIR9": 0, "LINE_DIR10": 0, "LINE_DIR11": 0, "LINE_DIR12": 0, "LINE_DIR13": 0, "LINE_DIR14": 0, "layer_id": "bus_stops", "feature_name": "Bus Stop" }, "geometry": { "type": "Point", "coordinates": [ -118.274134, 34.068204 ] } },
{ "type": "Feature", "properties": { "STOPNUM": 428, "STOPNAME": "Beverly / Union", "LAT": 34.064629, "LONG": -118.265436, "LINE_DIR1": "14-N", "LINE_DIR2": null, "LINE_DIR3": 0, "LINE_DIR4": 0, "LINE_DIR5": 0, "LINE_DIR6": 0, "LINE_DIR7": 0, "LINE_DIR8": 0, "LINE_DIR9": 0, "LINE_DIR10": 0, "LINE_DIR11": 0, "LINE_DIR12": 0, "LINE_DIR13": 0, "LINE_DIR14": 0, "layer_id": "bus_stops", "feature_name": "Bus Stop" }, "geometry": { "type": "Point", "coordinates": [ -118.265436, 34.064629 ] } },
{ "type": "Feature", "properties": { "STOPNUM": 475, "STOPNAME": "Spring / 1st", "LAT": 34.052758, "LONG": -118.244738, "LINE_DIR1": "28-W", "LINE_DIR2": "33-W", "LINE_DIR3": 0, "LINE_DIR4": 0, "LINE_DIR5": 0, "LINE_DIR6": 0, "LINE_DIR7": 0, "LINE_DIR8": 0, "LINE_DIR9": 0, "LINE_DIR10": 0, "LINE_DIR11": 0, "LINE_DIR12": 0, "LINE_DIR13": 0, "LINE_DIR14": 0, "layer_id": "bus_stops", "feature_name": "Bus Stop" }, "geometry": { "type": "Point", "coordinates": [ -118.244738, 34.052758 ] } },
{ "type": "Feature", "properties": { "STOPNUM": 481, "STOPNAME": "Temple / Hill", "LAT": 34.056213, "LONG": -118.244365, "LINE_DIR1": "92-S", "LINE_DIR2": null, "LINE_DIR3": 0, "LINE_DIR4": 0, "LINE_DIR5": 0, "LINE_DIR6": 0, "LINE_DIR7": 0, "LINE_DIR8": 0, "LINE_DIR9": 0, "LINE_DIR10": 0, "LINE_DIR11": 0, "LINE_DIR12": 0, "LINE_DIR13": 0, "LINE_DIR14": 0, "layer_id": "bus_stops", "feature_name": "Bus Stop" }, "geometry": { "type": "Point", "coordinates": [ -118.244365, 34.056213 ] } },
{ "type": "Feature", "properties": { "STOPNUM": 483, "STOPNAME": "Broadway / Washington", "LAT": 34.031195, "LONG": -118.265755, "LINE_DIR1": "40-N", "LINE_DIR2": "45-N", "LINE_DIR3": 0, "LINE_DIR4": 0, "LINE_DIR5": 0, "LINE_DIR6": 0, "LINE_DIR7": 0, "LINE_DIR8": 0, "LINE_DIR9": 0, "LINE_DIR10": 0, "LINE_DIR11": 0, "LINE_DIR12": 0, "LINE_DIR13": 0, "LINE_DIR14": 0, "layer_id": "bus_stops", "feature_name": "Bus Stop" }, "geometry": { "type": "Point", "coordinates": [ -118.265755, 34.031195 ] } },
{ "type": "Feature", "properties": { "STOPNUM": 652, "STOPNAME": "Cesar E Chavez / Vignes", "LAT": 34.056569, "LONG": -118.232191, "LINE_DIR1": "33-E", "LINE_DIR2": "40-N", "LINE_DIR3": 0, "LINE_DIR4": 0, "LINE_DIR5": 0, "LINE_DIR6": 0, "LINE_DIR7": 0, "LINE_DIR8": 0, "LINE_DIR9": 0, "LINE_DIR10": 0, "LINE_DIR11": 0, "LINE_DIR12": 0, "LINE_DIR13": 0, "LINE_DIR14": 0, "layer_id": "bus_stops", "feature_name": "Bus Stop" }, "geometry": { "type": "Point", "coordinates": [ -118.232191, 34.056569 ] } },
{ "type": "Feature", "properties": { "STOPNUM": 655, "STOPNAME": "Alameda / Cesar E Chavez", "LAT": 34.057821, "LONG": -118.237265, "LINE_DIR1": "40-S", "LINE_DIR2": "106-S", "LINE_DIR3": 0, "LINE_DIR4": 0, "LINE_DIR5": 0, "LINE_DIR6": 0, "LINE_DIR7": 0, "LINE_DIR8": 0, "LINE_DIR9": 0, "LINE_DIR10": 0, "LINE_DIR11": 0, "LINE_DIR12": 0, "LINE_DIR13": 0, "LINE_DIR14": 0, "layer_id": "bus_stops", "feature_name": "Bus Stop" }, "geometry": { "type": "Point", "coordinates": [ -118.237265, 34.057821 ] } },
{ "type": "Feature", "properties": { "STOPNUM": 656, "STOPNAME": "Cesar E Chavez / Alameda", "LAT": 34.057838, "LONG": -118.236635, "LINE_DIR1": "28-E", "LINE_DIR2": "106-N", "LINE_DIR3": 0, "LINE_DIR4": 0, "LINE_DIR5": 0, "LINE_DIR6": 0, "LINE_DIR7": 0, "LINE_DIR8": 0, "LINE_DIR9": 0, "LINE_DIR10": 0, "LINE_DIR11": 0, "LINE_DIR12": 0, "LINE_DIR13": 0, "LINE_DIR14": 0, "layer_id": "bus_stops", "feature_name": "Bus Stop" }, "geometry": { "type": "Point", "coordinates": [ -118.236635, 34.057838 ] } },
{ "type": "Feature", "properties": { "STOPNUM": 680, "STOPNAME": "Cesar E Chavez / New High", "LAT": 34.058181, "LONG": -118.239699, "LINE_DIR1": "4-E", "LINE_DIR2": null, "LINE_DIR3": 0, "LINE_DIR4": 0, "LINE_DIR5": 0, "LINE_DIR6": 0, "LINE_DIR7": 0, "LINE_DIR8": 0, "LINE_DIR9": 0, "LINE_DIR10": 0, "LINE_DIR11": 0, "LINE_DIR12": 0, "LINE_DIR13": 0, "LINE_DIR14": 0, "layer_id": "bus_stops", "feature_name": "Bus Stop" }, "geometry": { "type": "Point", "coordinates": [ -118.239699, 34.058181 ] } },
{ "type": "Feature", "properties": { "STOPNUM": 683, "STOPNAME": "Cesar E Chavez / Vignes", "LAT": 34.056828, "LONG": -118.232139, "LINE_DIR1": "28-W", "LINE_DIR2": "106-S", "LINE_DIR3": 0, "LINE_DIR4": 0, "LINE_DIR5": 0, "LINE_DIR6": 0, "LINE_DIR7": 0, "LINE_DIR8": 0, "LINE_DIR9": 0, "LINE_DIR10": 0, "LINE_DIR11": 0, "LINE_DIR12": 0, "LINE_DIR13": 0, "LINE_DIR14": 0, "layer_id": "bus_stops", "feature_name": "Bus Stop" }, "geometry": { "type": "Point", "coordinates": [ -118.232139, 34.056828 ] } },
{ "type": "Feature", "properties": { "STOPNUM": 955, "STOPNAME": "Hill / 5th", "LAT": 34.049565, "LONG": -118.251193, "LINE_DIR1": "94-S", "LINE_DIR2": null, "LINE_DIR3": 0, "LINE_DIR4": 0, "LINE_DIR5": 0, "LINE_DIR6": 0, "LINE_DIR7": 0, "LINE_DIR8": 0, "LINE_DIR9": 0, "LINE_DIR10": 0, "LINE_DIR11": 0, "LINE_DIR12": 0, "LINE_DIR13": 0, "LINE_DIR14": 0, "layer_id": "bus_stops", "feature_name": "Bus Stop" }, "geometry": { "type": "Point", "coordinates": [ -118.251193, 34.049565 ] } },
{ "type": "Feature", "properties": { "STOPNUM": 1131, "STOPNAME": "Main / 11th", "LAT": 34.038897, "LONG": -118.258109, "LINE_DIR1": "10-W", "LINE_DIR2": "55-N", "LINE_DIR3": 0, "LINE_DIR4": 0, "LINE_DIR5": 0, "LINE_DIR6": 0, "LINE_DIR7": 0, "LINE_DIR8": 0, "LINE_DIR9": 0, "LINE_DIR10": 0, "LINE_DIR11": 0, "LINE_DIR12": 0, "LINE_DIR13": 0, "LINE_DIR14": 0, "layer_id": "bus_stops", "feature_name": "Bus Stop" }, "geometry": { "type": "Point", "coordinates": [ -118.258109, 34.038897 ] } },
{ "type": "Feature", "properties": { "STOPNUM": 1166, "STOPNAME": "1st / Main", "LAT": 34.051917, "LONG": -118.243244, "LINE_DIR1": "30-E", "LINE_DIR2": "76-E", "LINE_DIR3": 0, "LINE_DIR4": 0, "LINE_DIR5": 0, "LINE_DIR6": 0, "LINE_DIR7": 0, "LINE_DIR8": 0, "LINE_DIR9": 0, "LINE_DIR10": 0, "LINE_DIR11": 0, "LINE_DIR12": 0, "LINE_DIR13": 0, "LINE_DIR14": 0, "layer_id": "bus_stops", "feature_name": "Bus Stop" }, "geometry": { "type": "Point", "coordinates": [ -118.243244, 34.051917 ] } },
{ "type": "Feature", "properties": { "STOPNUM": 1172, "STOPNAME": "1st / San Pedro", "LAT": 34.050438, "LONG": -118.241133, "LINE_DIR1": "30-E", "LINE_DIR2": "106-S", "LINE_DIR3": 0, "LINE_DIR4": 0, "LINE_DIR5": 0, "LINE_DIR6": 0, "LINE_DIR7": 0, "LINE_DIR8": 0, "LINE_DIR9": 0, "LINE_DIR10": 0, "LINE_DIR11": 0, "LINE_DIR12": 0, "LINE_DIR13": 0, "LINE_DIR14": 0, "layer_id": "bus_stops", "feature_name": "Bus Stop" }, "geometry": { "type": "Point", "coordinates": [ -118.241133, 34.050438 ] } },
{ "type": "Feature", "properties": { "STOPNUM": 1177, "STOPNAME": "1st / Vignes", "LAT": 34.048333, "LONG": -118.234053, "LINE_DIR1": "106-S", "LINE_DIR2": null, "LINE_DIR3": 0, "LINE_DIR4": 0, "LINE_DIR5": 0, "LINE_DIR6": 0, "LINE_DIR7": 0, "LINE_DIR8": 0, "LINE_DIR9": 0, "LINE_DIR10": 0, "LINE_DIR11": 0, "LINE_DIR12": 0, "LINE_DIR13": 0, "LINE_DIR14": 0, "layer_id": "bus_stops", "feature_name": "Bus Stop" }, "geometry": { "type": "Point", "coordinates": [ -118.234053, 34.048333 ] } },
{ "type": "Feature", "properties": { "STOPNUM": 1204, "STOPNAME": "5th / Wall", "LAT": 34.044875, "LONG": -118.245544, "LINE_DIR1": "16-W", "LINE_DIR2": "62-N", "LINE_DIR3": 0, "LINE_DIR4": 0, "LINE_DIR5": 0, "LINE_DIR6": 0, "LINE_DIR7": 0, "LINE_DIR8": 0, "LINE_DIR9": 0, "LINE_DIR10": 0, "LINE_DIR11": 0, "LINE_DIR12": 0, "LINE_DIR13": 0, "LINE_DIR14": 0, "layer_id": "bus_stops", "feature_name": "Bus Stop" }, "geometry": { "type": "Point", "coordinates": [ -118.245544, 34.044875 ] } },
{ "type": "Feature", "properties": { "STOPNUM": 1208, "STOPNAME": "1st / Los Angeles", "LAT": 34.051781, "LONG": -118.242517, "LINE_DIR1": "30-W", "LINE_DIR2": "76-W", "LINE_DIR3": 0, "LINE_DIR4": 0, "LINE_DIR5": 0, "LINE_DIR6": 0, "LINE_DIR7": 0, "LINE_DIR8": 0, "LINE_DIR9": 0, "LINE_DIR10": 0, "LINE_DIR11": 0, "LINE_DIR12": 0, "LINE_DIR13": 0, "LINE_DIR14": 0, "layer_id": "bus_stops", "feature_name": "Bus Stop" }, "geometry": { "type": "Point", "coordinates": [ -118.242517, 34.051781 ] } },
{ "type": "Feature", "properties": { "STOPNUM": 1210, "STOPNAME": "6th / Central", "LAT": 34.039356, "LONG": -118.240745, "LINE_DIR1": "18-E", "LINE_DIR2": "720-E", "LINE_DIR3": 0, "LINE_DIR4": 0, "LINE_DIR5": 0, "LINE_DIR6": 0, "LINE_DIR7": 0, "LINE_DIR8": 0, "LINE_DIR9": 0, "LINE_DIR10": 0, "LINE_DIR11": 0, "LINE_DIR12": 0, "LINE_DIR13": 0, "LINE_DIR14": 0, "layer_id": "bus_stops", "feature_name": "Bus Stop" }, "geometry": { "type": "Point", "coordinates": [ -118.240745, 34.039356 ] } },
{ "type": "Feature", "properties": { "STOPNUM": 1211, "STOPNAME": "6th / Mateo", "LAT": 34.038132, "LONG": -118.232839, "LINE_DIR1": "18-E", "LINE_DIR2": null, "LINE_DIR3": 0, "LINE_DIR4": 0, "LINE_DIR5": 0, "LINE_DIR6": 0, "LINE_DIR7": 0, "LINE_DIR8": 0, "LINE_DIR9": 0, "LINE_DIR10": 0, "LINE_DIR11": 0, "LINE_DIR12": 0, "LINE_DIR13": 0, "LINE_DIR14": 0, "layer_id": "bus_stops", "feature_name": "Bus Stop" }, "geometry": { "type": "Point", "coordinates": [ -118.232839, 34.038132 ] } },
{ "type": "Feature", "properties": { "STOPNUM": 1213, "STOPNAME": "Central / 6th", "LAT": 34.039201, "LONG": -118.239787, "LINE_DIR1": "18-W", "LINE_DIR2": "720-W", "LINE_DIR3": 0, "LINE_DIR4": 0, "LINE_DIR5": 0, "LINE_DIR6": 0, "LINE_DIR7": 0, "LINE_DIR8": 0, "LINE_DIR9": 0, "LINE_DIR10": 0, "LINE_DIR11": 0, "LINE_DIR12": 0, "LINE_DIR13": 0, "LINE_DIR14": 0, "layer_id": "bus_stops", "feature_name": "Bus Stop" }, "geometry": { "type": "Point", "coordinates": [ -118.239787, 34.039201 ] } },
{ "type": "Feature", "properties": { "STOPNUM": 1214, "STOPNAME": "6th / Main", "LAT": 34.045051, "LONG": -118.249763, "LINE_DIR1": "20-E", "LINE_DIR2": "720-E", "LINE_DIR3": 0, "LINE_DIR4": 0, "LINE_DIR5": 0, "LINE_DIR6": 0, "LINE_DIR7": 0, "LINE_DIR8": 0, "LINE_DIR9": 0, "LINE_DIR10": 0, "LINE_DIR11": 0, "LINE_DIR12": 0, "LINE_DIR13": 0, "LINE_DIR14": 0, "layer_id": "bus_stops", "feature_name": "Bus Stop" }, "geometry": { "type": "Point", "coordinates": [ -118.249763, 34.045051 ] } },
{ "type": "Feature", "properties": { "STOPNUM": 1216, "STOPNAME": "6th / Towne", "LAT": 34.041238, "LONG": -118.243777, "LINE_DIR1": "18-E", "LINE_DIR2": "62-S", "LINE_DIR3": 0, "LINE_DIR4": 0, "LINE_DIR5": 0, "LINE_DIR6": 0, "LINE_DIR7": 0, "LINE_DIR8": 0, "LINE_DIR9": 0, "LINE_DIR10": 0, "LINE_DIR11": 0, "LINE_DIR12": 0, "LINE_DIR13": 0, "LINE_DIR14": 0, "layer_id": "bus_stops", "feature_name": "Bus Stop" }, "geometry": { "type": "Point", "coordinates": [ -118.243777, 34.041238 ] } },
{ "type": "Feature", "properties": { "STOPNUM": 1217, "STOPNAME": "6th / Wall", "LAT": 34.043467, "LONG": -118.247325, "LINE_DIR1": "18-E", "LINE_DIR2": "62-S", "LINE_DIR3": 0, "LINE_DIR4": 0, "LINE_DIR5": 0, "LINE_DIR6": 0, "LINE_DIR7": 0, "LINE_DIR8": 0, "LINE_DIR9": 0, "LINE_DIR10": 0, "LINE_DIR11": 0, "LINE_DIR12": 0, "LINE_DIR13": 0, "LINE_DIR14": 0, "layer_id": "bus_stops", "feature_name": "Bus Stop" }, "geometry": { "type": "Point", "coordinates": [ -118.247325, 34.043467 ] } },
{ "type": "Feature", "properties": { "STOPNUM": 1218, "STOPNAME": "7th / Decatur", "LAT": 34.034867, "LONG": -118.234847, "LINE_DIR1": "60-N", "LINE_DIR2": "62-N", "LINE_DIR3": 0, "LINE_DIR4": 0, "LINE_DIR5": 0, "LINE_DIR6": 0, "LINE_DIR7": 0, "LINE_DIR8": 0, "LINE_DIR9": 0, "LINE_DIR10": 0, "LINE_DIR11": 0, "LINE_DIR12": 0, "LINE_DIR13": 0, "LINE_DIR14": 0, "layer_id": "bus_stops", "feature_name": "Bus Stop" }, "geometry": { "type": "Point", "coordinates": [ -118.234847, 34.034867 ] } },
{ "type": "Feature", "properties": { "STOPNUM": 1219, "STOPNAME": "7th / Gladys", "LAT": 34.038784, "LONG": -118.243783, "LINE_DIR1": "60-N", "LINE_DIR2": null, "LINE_DIR3": 0, "LINE_DIR4": 0, "LINE_DIR5": 0, "LINE_DIR6": 0, "LINE_DIR7": 0, "LINE_DIR8": 0, "LINE_DIR9": 0, "LINE_DIR10": 0, "LINE_DIR11": 0, "LINE_DIR12": 0, "LINE_DIR13": 0, "LINE_DIR14": 0, "layer_id": "bus_stops", "feature_name": "Bus Stop" }, "geometry": { "type": "Point", "coordinates": [ -118.243783, 34.038784 ] } },
{ "type": "Feature", "properties": { "STOPNUM": 1220, "STOPNAME": "7th / Maple", "LAT": 34.042447, "LONG": -118.249036, "LINE_DIR1": "20-W", "LINE_DIR2": "60-N", "LINE_DIR3": 0, "LINE_DIR4": 0, "LINE_DIR5": 0, "LINE_DIR6": 0, "LINE_DIR7": 0, "LINE_DIR8": 0, "LINE_DIR9": 0, "LINE_DIR10": 0, "LINE_DIR11": 0, "LINE_DIR12": 0, "LINE_DIR13": 0, "LINE_DIR14": 0, "layer_id": "bus_stops", "feature_name": "Bus Stop" }, "geometry": { "type": "Point", "coordinates": [ -118.249036, 34.042447 ] } },
{ "type": "Feature", "properties": { "STOPNUM": 1222, "STOPNAME": "7th / Alameda", "LAT": 34.035096, "LONG": -118.238333, "LINE_DIR1": "60-N", "LINE_DIR2": "62-N", "LINE_DIR3": 0, "LINE_DIR4": 0, "LINE_DIR5": 0, "LINE_DIR6": 0, "LINE_DIR7": 0, "LINE_DIR8": 0, "LINE_DIR9": 0, "LINE_DIR10": 0, "LINE_DIR11": 0, "LINE_DIR12": 0, "LINE_DIR13": 0, "LINE_DIR14": 0, "layer_id": "bus_stops", "feature_name": "Bus Stop" }, "geometry": { "type": "Point", "coordinates": [ -118.238333, 34.035096 ] } },
{ "type": "Feature", "properties": { "STOPNUM": 1229, "STOPNAME": "7th / Main", "LAT": 34.043894, "LONG": -118.25109, "LINE_DIR1": "35-N", "LINE_DIR2": "51-N", "LINE_DIR3": 0, "LINE_DIR4": 0, "LINE_DIR5": 0, "LINE_DIR6": 0, "LINE_DIR7": 0, "LINE_DIR8": 0, "LINE_DIR9": 0, "LINE_DIR10": 0, "LINE_DIR11": 0, "LINE_DIR12": 0, "LINE_DIR13": 0, "LINE_DIR14": 0, "layer_id": "bus_stops", "feature_name": "Bus Stop" }, "geometry": { "type": "Point", "coordinates": [ -118.25109, 34.043894 ] } },
{ "type": "Feature", "properties": { "STOPNUM": 1231, "STOPNAME": "7th / San Pedro", "LAT": 34.04097, "LONG": -118.246909, "LINE_DIR1": "51-N", "LINE_DIR2": "60-N", "LINE_DIR3": 0, "LINE_DIR4": 0, "LINE_DIR5": 0, "LINE_DIR6": 0, "LINE_DIR7": 0, "LINE_DIR8": 0, "LINE_DIR9": 0, "LINE_DIR10": 0, "LINE_DIR11": 0, "LINE_DIR12": 0, "LINE_DIR13": 0, "LINE_DIR14": 0, "layer_id": "bus_stops", "feature_name": "Bus Stop" }, "geometry": { "type": "Point", "coordinates": [ -118.246909, 34.04097 ] } },
{ "type": "Feature", "properties": { "STOPNUM": 1246, "STOPNAME": "9th / Maple", "LAT": 34.039507, "LONG": -118.252902, "LINE_DIR1": "66-E", "LINE_DIR2": null, "LINE_DIR3": 0, "LINE_DIR4": 0, "LINE_DIR5": 0, "LINE_DIR6": 0, "LINE_DIR7": 0, "LINE_DIR8": 0, "LINE_DIR9": 0, "LINE_DIR10": 0, "LINE_DIR11": 0, "LINE_DIR12": 0, "LINE_DIR13": 0, "LINE_DIR14": 0, "layer_id": "bus_stops", "feature_name": "Bus Stop" }, "geometry": { "type": "Point", "coordinates": [ -118.252902, 34.039507 ] } },
{ "type": "Feature", "properties": { "STOPNUM": 1247, "STOPNAME": "9th / Main", "LAT": 34.041319, "LONG": -118.254855, "LINE_DIR1": "66-E", "LINE_DIR2": null, "LINE_DIR3": 0, "LINE_DIR4": 0, "LINE_DIR5": 0, "LINE_DIR6": 0, "LINE_DIR7": 0, "LINE_DIR8": 0, "LINE_DIR9": 0, "LINE_DIR10": 0, "LINE_DIR11": 0, "LINE_DIR12": 0, "LINE_DIR13": 0, "LINE_DIR14": 0, "layer_id": "bus_stops", "feature_name": "Bus Stop" }, "geometry": { "type": "Point", "coordinates": [ -118.254855, 34.041319 ] } },
{ "type": "Feature", "properties": { "STOPNUM": 1248, "STOPNAME": "Broadway / 8th", "LAT": 34.043042, "LONG": -118.255203, "LINE_DIR1": "4-W", "LINE_DIR2": "45-N", "LINE_DIR3": 0, "LINE_DIR4": 0, "LINE_DIR5": 0, "LINE_DIR6": 0, "LINE_DIR7": 0, "LINE_DIR8": 0, "LINE_DIR9": 0, "LINE_DIR10": 0, "LINE_DIR11": 0, "LINE_DIR12": 0, "LINE_DIR13": 0, "LINE_DIR14": 0, "layer_id": "bus_stops", "feature_name": "Bus Stop" }, "geometry": { "type": "Point", "coordinates": [ -118.255203, 34.043042 ] } },
{ "type": "Feature", "properties": { "STOPNUM": 1250, "STOPNAME": "9th / San Pedro", "LAT": 34.037352, "LONG": -118.250575, "LINE_DIR1": "66-E", "LINE_DIR2": null, "LINE_DIR3": 0, "LINE_DIR4": 0, "LINE_DIR5": 0, "LINE_DIR6": 0, "LINE_DIR7": 0, "LINE_DIR8": 0, "LINE_DIR9": 0, "LINE_DIR10": 0, "LINE_DIR11": 0, "LINE_DIR12": 0, "LINE_DIR13": 0, "LINE_DIR14": 0, "layer_id": "bus_stops", "feature_name": "Bus Stop" }, "geometry": { "type": "Point", "coordinates": [ -118.250575, 34.037352 ] } },
{ "type": "Feature", "properties": { "STOPNUM": 1251, "STOPNAME": "9th / Stanford", "LAT": 34.03503, "LONG": -118.24804, "LINE_DIR1": "66-E", "LINE_DIR2": null, "LINE_DIR3": 0, "LINE_DIR4": 0, "LINE_DIR5": 0, "LINE_DIR6": 0, "LINE_DIR7": 0, "LINE_DIR8": 0, "LINE_DIR9": 0, "LINE_DIR10": 0, "LINE_DIR11": 0, "LINE_DIR12": 0, "LINE_DIR13": 0, "LINE_DIR14": 0, "layer_id": "bus_stops", "feature_name": "Bus Stop" }, "geometry": { "type": "Point", "coordinates": [ -118.24804, 34.03503 ] } },
{ "type": "Feature", "properties": { "STOPNUM": 1253, "STOPNAME": "Adams / Griffith", "LAT": 34.0201, "LONG": -118.257698, "LINE_DIR1": "55-N", "LINE_DIR2": null, "LINE_DIR3": 0, "LINE_DIR4": 0, "LINE_DIR5": 0, "LINE_DIR6": 0, "LINE_DIR7": 0, "LINE_DIR8": 0, "LINE_DIR9": 0, "LINE_DIR10": 0, "LINE_DIR11": 0, "LINE_DIR12": 0, "LINE_DIR13": 0, "LINE_DIR14": 0, "layer_id": "bus_stops", "feature_name": "Bus Stop" }, "geometry": { "type": "Point", "coordinates": [ -118.257698, 34.0201 ] } },
{ "type": "Feature", "properties": { "STOPNUM": 1255, "STOPNAME": "Adams / Maple", "LAT": 34.023636, "LONG": -118.265675, "LINE_DIR1": "55-N", "LINE_DIR2": null, "LINE_DIR3": 0, "LINE_DIR4": 0, "LINE_DIR5": 0, "LINE_DIR6": 0, "LINE_DIR7": 0, "LINE_DIR8": 0, "LINE_DIR9": 0, "LINE_DIR10": 0, "LINE_DIR11": 0, "LINE_DIR12": 0, "LINE_DIR13": 0, "LINE_DIR14": 0, "layer_id": "bus_stops", "feature_name": "Bus Stop" }, "geometry": { "type": "Point", "coordinates": [ -118.265675, 34.023636 ] } },
{ "type": "Feature", "properties": { "STOPNUM": 1257, "STOPNAME": "Adams / Main", "LAT": 34.024844, "LONG": -118.268385, "LINE_DIR1": "55-N", "LINE_DIR2": null, "LINE_DIR3": 0, "LINE_DIR4": 0, "LINE_DIR5": 0, "LINE_DIR6": 0, "LINE_DIR7": 0, "LINE_DIR8": 0, "LINE_DIR9": 0, "LINE_DIR10": 0, "LINE_DIR11": 0, "LINE_DIR12": 0, "LINE_DIR13": 0, "LINE_DIR14": 0, "layer_id": "bus_stops", "feature_name": "Bus Stop" }, "geometry": { "type": "Point", "coordinates": [ -118.268385, 34.024844 ] } },
{ "type": "Feature", "properties": { "STOPNUM": 1258, "STOPNAME": "Adams / San Pedro", "LAT": 34.021831, "LONG": -118.261597, "LINE_DIR1": "55-N", "LINE_DIR2": null, "LINE_DIR3": 0, "LINE_DIR4": 0, "LINE_DIR5": 0, "LINE_DIR6": 0, "LINE_DIR7": 0, "LINE_DIR8": 0, "LINE_DIR9": 0, "LINE_DIR10": 0, "LINE_DIR11": 0, "LINE_DIR12": 0, "LINE_DIR13": 0, "LINE_DIR14": 0, "layer_id": "bus_stops", "feature_name": "Bus Stop" }, "geometry": { "type": "Point", "coordinates": [ -118.261597, 34.021831 ] } },
{ "type": "Feature", "properties": { "STOPNUM": 1266, "STOPNAME": "8th / Olive", "LAT": 34.045426, "LONG": -118.257059, "LINE_DIR1": "66-W", "LINE_DIR2": "81-S", "LINE_DIR3": 0, "LINE_DIR4": 0, "LINE_DIR5": 0, "LINE_DIR6": 0, "LINE_DIR7": 0, "LINE_DIR8": 0, "LINE_DIR9": 0, "LINE_DIR10": 0, "LINE_DIR11": 0, "LINE_DIR12": 0, "LINE_DIR13": 0, "LINE_DIR14": 0, "layer_id": "bus_stops", "feature_name": "Bus Stop" }, "geometry": { "type": "Point", "coordinates": [ -118.257059, 34.045426 ] } },
{ "type": "Feature", "properties": { "STOPNUM": 1490, "STOPNAME": "Jefferson / Flower", "LAT": 34.021417, "LONG": -118.278482, "LINE_DIR1": "102-W", "LINE_DIR2": null, "LINE_DIR3": 0, "LINE_DIR4": 0, "LINE_DIR5": 0, "LINE_DIR6": 0, "LINE_DIR7": 0, "LINE_DIR8": 0, "LINE_DIR9": 0, "LINE_DIR10": 0, "LINE_DIR11": 0, "LINE_DIR12": 0, "LINE_DIR13": 0, "LINE_DIR14": 0, "layer_id": "bus_stops", "feature_name": "Bus Stop" }, "geometry": { "type": "Point", "coordinates": [ -118.278482, 34.021417 ] } },
{ "type": "Feature", "properties": { "STOPNUM": 1580, "STOPNAME": "Olympic / Hooper", "LAT": 34.029444, "LONG": -118.2413, "LINE_DIR1": "66-E", "LINE_DIR2": null, "LINE_DIR3": 0, "LINE_DIR4": 0, "LINE_DIR5": 0, "LINE_DIR6": 0, "LINE_DIR7": 0, "LINE_DIR8": 0, "LINE_DIR9": 0, "LINE_DIR10": 0, "LINE_DIR11": 0, "LINE_DIR12": 0, "LINE_DIR13": 0, "LINE_DIR14": 0, "layer_id": "bus_stops", "feature_name": "Bus Stop" }, "geometry": { "type": "Point", "coordinates": [ -118.2413, 34.029444 ] } },
{ "type": "Feature", "properties": { "STOPNUM": 1581, "STOPNAME": "Olympic / Lawrence", "LAT": 34.02694, "LONG": -118.237112, "LINE_DIR1": "66-E", "LINE_DIR2": null, "LINE_DIR3": 0, "LINE_DIR4": 0, "LINE_DIR5": 0, "LINE_DIR6": 0, "LINE_DIR7": 0, "LINE_DIR8": 0, "LINE_DIR9": 0, "LINE_DIR10": 0, "LINE_DIR11": 0, "LINE_DIR12": 0, "LINE_DIR13": 0, "LINE_DIR14": 0, "layer_id": "bus_stops", "feature_name": "Bus Stop" }, "geometry": { "type": "Point", "coordinates": [ -118.237112, 34.02694 ] } },
{ "type": "Feature", "properties": { "STOPNUM": 1583, "STOPNAME": "Olympic / Mateo", "LAT": 34.025807, "LONG": -118.231841, "LINE_DIR1": "66-E", "LINE_DIR2": null, "LINE_DIR3": 0, "LINE_DIR4": 0, "LINE_DIR5": 0, "LINE_DIR6": 0, "LINE_DIR7": 0, "LINE_DIR8": 0, "LINE_DIR9": 0, "LINE_DIR10": 0, "LINE_DIR11": 0, "LINE_DIR12": 0, "LINE_DIR13": 0, "LINE_DIR14": 0, "layer_id": "bus_stops", "feature_name": "Bus Stop" }, "geometry": { "type": "Point", "coordinates": [ -118.231841, 34.025807 ] } },
{ "type": "Feature", "properties": { "STOPNUM": 1586, "STOPNAME": "Olympic / Alameda", "LAT": 34.027617, "LONG": -118.239288, "LINE_DIR1": "66-E", "LINE_DIR2": null, "LINE_DIR3": 0, "LINE_DIR4": 0, "LINE_DIR5": 0, "LINE_DIR6": 0, "LINE_DIR7": 0, "LINE_DIR8": 0, "LINE_DIR9": 0, "LINE_DIR10": 0, "LINE_DIR11": 0, "LINE_DIR12": 0, "LINE_DIR13": 0, "LINE_DIR14": 0, "layer_id": "bus_stops", "feature_name": "Bus Stop" }, "geometry": { "type": "Point", "coordinates": [ -118.239288, 34.027617 ] } },
{ "type": "Feature", "properties": { "STOPNUM": 1604, "STOPNAME": "Main / Olympic", "LAT": 34.040394, "LONG": -118.257054, "LINE_DIR1": "40-S", "LINE_DIR2": "92-S", "LINE_DIR3": 0, "LINE_DIR4": 0, "LINE_DIR5": 0, "LINE_DIR6": 0, "LINE_DIR7": 0, "LINE_DIR8": 0, "LINE_DIR9": 0, "LINE_DIR10": 0, "LINE_DIR11": 0, "LINE_DIR12": 0, "LINE_DIR13": 0, "LINE_DIR14": 0, "layer_id": "bus_stops", "feature_name": "Bus Stop" }, "geometry": { "type": "Point", "coordinates": [ -118.257054, 34.040394 ] } },
{ "type": "Feature", "properties": { "STOPNUM": 1813, "STOPNAME": "Flower / 23rd", "LAT": 34.030324, "LONG": -118.273023, "LINE_DIR1": "460-E", "LINE_DIR2": "910-S", "LINE_DIR3": 0, "LINE_DIR4": 0, "LINE_DIR5": 0, "LINE_DIR6": 0, "LINE_DIR7": 0, "LINE_DIR8": 0, "LINE_DIR9": 0, "LINE_DIR10": 0, "LINE_DIR11": 0, "LINE_DIR12": 0, "LINE_DIR13": 0, "LINE_DIR14": 0, "layer_id": "bus_stops", "feature_name": "Bus Stop" }, "geometry": { "type": "Point", "coordinates": [ -118.273023, 34.030324 ] } },
{ "type": "Feature", "properties": { "STOPNUM": 1854, "STOPNAME": "Alvarado / Wilshire", "LAT": 34.057095, "LONG": -118.276237, "LINE_DIR1": "2-W", "LINE_DIR2": "51-N", "LINE_DIR3": 0, "LINE_DIR4": 0, "LINE_DIR5": 0, "LINE_DIR6": 0, "LINE_DIR7": 0, "LINE_DIR8": 0, "LINE_DIR9": 0, "LINE_DIR10": 0, "LINE_DIR11": 0, "LINE_DIR12": 0, "LINE_DIR13": 0, "LINE_DIR14": 0, "layer_id": "bus_stops", "feature_name": "Bus Stop" }, "geometry": { "type": "Point", "coordinates": [ -118.276237, 34.057095 ] } },
{ "type": "Feature", "properties": { "STOPNUM": 1888, "STOPNAME": "Venice / Flower", "LAT": 34.036983, "LONG": -118.269064, "LINE_DIR1": "33-E", "LINE_DIR2": "81-S", "LINE_DIR3": 0, "LINE_DIR4": 0, "LINE_DIR5": 0, "LINE_DIR6": 0, "LINE_DIR7": 0, "LINE_DIR8": 0, "LINE_DIR9": 0, "LINE_DIR10": 0, "LINE_DIR11": 0, "LINE_DIR12": 0, "LINE_DIR13": 0, "LINE_DIR14": 0, "layer_id": "bus_stops", "feature_name": "Bus Stop" }, "geometry": { "type": "Point", "coordinates": [ -118.269064, 34.036983 ] } },
{ "type": "Feature", "properties": { "STOPNUM": 2000, "STOPNAME": "Cesar E Chavez / Grand", "LAT": 34.060624, "LONG": -118.244081, "LINE_DIR1": "4-E", "LINE_DIR2": "60-S", "LINE_DIR3": 0, "LINE_DIR4": 0, "LINE_DIR5": 0, "LINE_DIR6": 0, "LINE_DIR7": 0, "LINE_DIR8": 0, "LINE_DIR9": 0, "LINE_DIR10": 0, "LINE_DIR11": 0, "LINE_DIR12": 0, "LINE_DIR13": 0, "LINE_DIR14": 0, "layer_id": "bus_stops", "feature_name": "Bus Stop" }, "geometry": { "type": "Point", "coordinates": [ -118.244081, 34.060624 ] } },
{ "type": "Feature", "properties": { "STOPNUM": 2150, "STOPNAME": "Flower / Venice", "LAT": 34.037151, "LONG": -118.268837, "LINE_DIR1": "460-E", "LINE_DIR2": null, "LINE_DIR3": 0, "LINE_DIR4": 0, "LINE_DIR5": 0, "LINE_DIR6": 0, "LINE_DIR7": 0, "LINE_DIR8": 0, "LINE_DIR9": 0, "LINE_DIR10": 0, "LINE_DIR11": 0, "LINE_DIR12": 0, "LINE_DIR13": 0, "LINE_DIR14": 0, "layer_id": "bus_stops", "feature_name": "Bus Stop" }, "geometry": { "type": "Point", "coordinates": [ -118.268837, 34.037151 ] } },
{ "type": "Feature", "properties": { "STOPNUM": 2195, "STOPNAME": "Glendale / Reservoir", "LAT": 34.078311, "LONG": -118.260238, "LINE_DIR1": "92-N", "LINE_DIR2": null, "LINE_DIR3": 0, "LINE_DIR4": 0, "LINE_DIR5": 0, "LINE_DIR6": 0, "LINE_DIR7": 0, "LINE_DIR8": 0, "LINE_DIR9": 0, "LINE_DIR10": 0, "LINE_DIR11": 0, "LINE_DIR12": 0, "LINE_DIR13": 0, "LINE_DIR14": 0, "layer_id": "bus_stops", "feature_name": "Bus Stop" }, "geometry": { "type": "Point", "coordinates": [ -118.260238, 34.078311 ] } },
{ "type": "Feature", "properties": { "STOPNUM": 2201, "STOPNAME": "Grand / 7th", "LAT": 34.047102, "LONG": -118.257012, "LINE_DIR1": "70-W", "LINE_DIR2": null, "LINE_DIR3": 0, "LINE_DIR4": 0, "LINE_DIR5": 0, "LINE_DIR6": 0, "LINE_DIR7": 0, "LINE_DIR8": 0, "LINE_DIR9": 0, "LINE_DIR10": 0, "LINE_DIR11": 0, "LINE_DIR12": 0, "LINE_DIR13": 0, "LINE_DIR14": 0, "layer_id": "bus_stops", "feature_name": "Bus Stop" }, "geometry": { "type": "Point", "coordinates": [ -118.257012, 34.047102 ] } },
{ "type": "Feature", "properties": { "STOPNUM": 2207, "STOPNAME": "Glendale / Montana", "LAT": 34.079575, "LONG": -118.260041, "LINE_DIR1": "92-N", "LINE_DIR2": null, "LINE_DIR3": 0, "LINE_DIR4": 0, "LINE_DIR5": 0, "LINE_DIR6": 0, "LINE_DIR7": 0, "LINE_DIR8": 0, "LINE_DIR9": 0, "LINE_DIR10": 0, "LINE_DIR11": 0, "LINE_DIR12": 0, "LINE_DIR13": 0, "LINE_DIR14": 0, "layer_id": "bus_stops", "feature_name": "Bus Stop" }, "geometry": { "type": "Point", "coordinates": [ -118.260041, 34.079575 ] } },
{ "type": "Feature", "properties": { "STOPNUM": 2208, "STOPNAME": "Glendale / Park", "LAT": 34.076503, "LONG": -118.261355, "LINE_DIR1": "92-S", "LINE_DIR2": null, "LINE_DIR3": 0, "LINE_DIR4": 0, "LINE_DIR5": 0, "LINE_DIR6": 0, "LINE_DIR7": 0, "LINE_DIR8": 0, "LINE_DIR9": 0, "LINE_DIR10": 0, "LINE_DIR11": 0, "LINE_DIR12": 0, "LINE_DIR13": 0, "LINE_DIR14": 0, "layer_id": "bus_stops", "feature_name": "Bus Stop" }, "geometry": { "type": "Point", "coordinates": [ -118.261355, 34.076503 ] } },
{ "type": "Feature", "properties": { "STOPNUM": 2210, "STOPNAME": "Glendale / Santa Ynez", "LAT": 34.074249, "LONG": -118.26157, "LINE_DIR1": "92-N", "LINE_DIR2": null, "LINE_DIR3": 0, "LINE_DIR4": 0, "LINE_DIR5": 0, "LINE_DIR6": 0, "LINE_DIR7": 0, "LINE_DIR8": 0, "LINE_DIR9": 0, "LINE_DIR10": 0, "LINE_DIR11": 0, "LINE_DIR12": 0, "LINE_DIR13": 0, "LINE_DIR14": 0, "layer_id": "bus_stops", "feature_name": "Bus Stop" }, "geometry": { "type": "Point", "coordinates": [ -118.26157, 34.074249 ] } },
{ "type": "Feature", "properties": { "STOPNUM": 2212, "STOPNAME": "Spring / 7th", "LAT": 34.043972, "LONG": -118.252932, "LINE_DIR1": "28-W", "LINE_DIR2": "33-W", "LINE_DIR3": 0, "LINE_DIR4": 0, "LINE_DIR5": 0, "LINE_DIR6": 0, "LINE_DIR7": 0, "LINE_DIR8": 0, "LINE_DIR9": 0, "LINE_DIR10": 0, "LINE_DIR11": 0, "LINE_DIR12": 0, "LINE_DIR13": 0, "LINE_DIR14": 0, "layer_id": "bus_stops", "feature_name": "Bus Stop" }, "geometry": { "type": "Point", "coordinates": [ -118.252932, 34.043972 ] } },
{ "type": "Feature", "properties": { "STOPNUM": 2272, "STOPNAME": "Grand / Adams", "LAT": 34.026297, "LONG": -118.272212, "LINE_DIR1": "35-N", "LINE_DIR2": null, "LINE_DIR3": 0, "LINE_DIR4": 0, "LINE_DIR5": 0, "LINE_DIR6": 0, "LINE_DIR7": 0, "LINE_DIR8": 0, "LINE_DIR9": 0, "LINE_DIR10": 0, "LINE_DIR11": 0, "LINE_DIR12": 0, "LINE_DIR13": 0, "LINE_DIR14": 0, "layer_id": "bus_stops", "feature_name": "Bus Stop" }, "geometry": { "type": "Point", "coordinates": [ -118.272212, 34.026297 ] } },
{ "type": "Feature", "properties": { "STOPNUM": 2345, "STOPNAME": "Terminal 25", "LAT": 34.063887, "LONG": -118.251345, "LINE_DIR1": "53-N", "LINE_DIR2": "487-W", "LINE_DIR3": 0, "LINE_DIR4": 0, "LINE_DIR5": 0, "LINE_DIR6": 0, "LINE_DIR7": 0, "LINE_DIR8": 0, "LINE_DIR9": 0, "LINE_DIR10": 0, "LINE_DIR11": 0, "LINE_DIR12": 0, "LINE_DIR13": 0, "LINE_DIR14": 0, "layer_id": "bus_stops", "feature_name": "Bus Stop" }, "geometry": { "type": "Point", "coordinates": [ -118.251345, 34.063887 ] } },
{ "type": "Feature", "properties": { "STOPNUM": 2377, "STOPNAME": "Flower / Pico", "LAT": 34.039881, "LONG": -118.267103, "LINE_DIR1": "460-E", "LINE_DIR2": "910-S", "LINE_DIR3": 0, "LINE_DIR4": 0, "LINE_DIR5": 0, "LINE_DIR6": 0, "LINE_DIR7": 0, "LINE_DIR8": 0, "LINE_DIR9": 0, "LINE_DIR10": 0, "LINE_DIR11": 0, "LINE_DIR12": 0, "LINE_DIR13": 0, "LINE_DIR14": 0, "layer_id": "bus_stops", "feature_name": "Bus Stop" }, "geometry": { "type": "Point", "coordinates": [ -118.267103, 34.039881 ] } },
{ "type": "Feature", "properties": { "STOPNUM": 2378, "STOPNAME": "Flower / Washington", "LAT": 34.03364, "LONG": -118.271067, "LINE_DIR1": "460-E", "LINE_DIR2": "910-S", "LINE_DIR3": 0, "LINE_DIR4": 0, "LINE_DIR5": 0, "LINE_DIR6": 0, "LINE_DIR7": 0, "LINE_DIR8": 0, "LINE_DIR9": 0, "LINE_DIR10": 0, "LINE_DIR11": 0, "LINE_DIR12": 0, "LINE_DIR13": 0, "LINE_DIR14": 0, "layer_id": "bus_stops", "feature_name": "Bus Stop" }, "geometry": { "type": "Point", "coordinates": [ -118.271067, 34.03364 ] } },
{ "type": "Feature", "properties": { "STOPNUM": 2397, "STOPNAME": "Grand / 2nd", "LAT": 34.054321, "LONG": -118.250213, "LINE_DIR1": "53-S", "LINE_DIR2": "78-W", "LINE_DIR3": 0, "LINE_DIR4": 0, "LINE_DIR5": 0, "LINE_DIR6": 0, "LINE_DIR7": 0, "LINE_DIR8": 0, "LINE_DIR9": 0, "LINE_DIR10": 0, "LINE_DIR11": 0, "LINE_DIR12": 0, "LINE_DIR13": 0, "LINE_DIR14": 0, "layer_id": "bus_stops", "feature_name": "Bus Stop" }, "geometry": { "type": "Point", "coordinates": [ -118.250213, 34.054321 ] } },
{ "type": "Feature", "properties": { "STOPNUM": 2421, "STOPNAME": "Sunset / Vin Scully - Dodger Stadium", "LAT": 34.072617, "LONG": -118.251259, "LINE_DIR1": "4-E", "LINE_DIR2": null, "LINE_DIR3": 0, "LINE_DIR4": 0, "LINE_DIR5": 0, "LINE_DIR6": 0, "LINE_DIR7": 0, "LINE_DIR8": 0, "LINE_DIR9": 0, "LINE_DIR10": 0, "LINE_DIR11": 0, "LINE_DIR12": 0, "LINE_DIR13": 0, "LINE_DIR14": 0, "layer_id": "bus_stops", "feature_name": "Bus Stop" }, "geometry": { "type": "Point", "coordinates": [ -118.251259, 34.072617 ] } },
{ "type": "Feature", "properties": { "STOPNUM": 2422, "STOPNAME": "Sunset / Vin Scully - Dodger Stadium", "LAT": 34.072623, "LONG": -118.250922, "LINE_DIR1": "4-W", "LINE_DIR2": null, "LINE_DIR3": 0, "LINE_DIR4": 0, "LINE_DIR5": 0, "LINE_DIR6": 0, "LINE_DIR7": 0, "LINE_DIR8": 0, "LINE_DIR9": 0, "LINE_DIR10": 0, "LINE_DIR11": 0, "LINE_DIR12": 0, "LINE_DIR13": 0, "LINE_DIR14": 0, "layer_id": "bus_stops", "feature_name": "Bus Stop" }, "geometry": { "type": "Point", "coordinates": [ -118.250922, 34.072623 ] } },
{ "type": "Feature", "properties": { "STOPNUM": 2456, "STOPNAME": "Hill / 7th", "LAT": 34.045759, "LONG": -118.254778, "LINE_DIR1": "4-E", "LINE_DIR2": "94-S", "LINE_DIR3": 0, "LINE_DIR4": 0, "LINE_DIR5": 0, "LINE_DIR6": 0, "LINE_DIR7": 0, "LINE_DIR8": 0, "LINE_DIR9": 0, "LINE_DIR10": 0, "LINE_DIR11": 0, "LINE_DIR12": 0, "LINE_DIR13": 0, "LINE_DIR14": 0, "layer_id": "bus_stops", "feature_name": "Bus Stop" }, "geometry": { "type": "Point", "coordinates": [ -118.254778, 34.045759 ] } },
{ "type": "Feature", "properties": { "STOPNUM": 2460, "STOPNAME": "Hill / Venice", "LAT": 34.034893, "LONG": -118.264529, "LINE_DIR1": "94-S", "LINE_DIR2": null, "LINE_DIR3": 0, "LINE_DIR4": 0, "LINE_DIR5": 0, "LINE_DIR6": 0, "LINE_DIR7": 0, "LINE_DIR8": 0, "LINE_DIR9": 0, "LINE_DIR10": 0, "LINE_DIR11": 0, "LINE_DIR12": 0, "LINE_DIR13": 0, "LINE_DIR14": 0, "layer_id": "bus_stops", "feature_name": "Bus Stop" }, "geometry": { "type": "Point", "coordinates": [ -118.264529, 34.034893 ] } },
{ "type": "Feature", "properties": { "STOPNUM": 2519, "STOPNAME": "Main / 1st", "LAT": 34.05236, "LONG": -118.243037, "LINE_DIR1": "33-E", "LINE_DIR2": "92-N", "LINE_DIR3": 0, "LINE_DIR4": 0, "LINE_DIR5": 0, "LINE_DIR6": 0, "LINE_DIR7": 0, "LINE_DIR8": 0, "LINE_DIR9": 0, "LINE_DIR10": 0, "LINE_DIR11": 0, "LINE_DIR12": 0, "LINE_DIR13": 0, "LINE_DIR14": 0, "layer_id": "bus_stops", "feature_name": "Bus Stop" }, "geometry": { "type": "Point", "coordinates": [ -118.243037, 34.05236 ] } },
{ "type": "Feature", "properties": { "STOPNUM": 2535, "STOPNAME": "7th / Hope", "LAT": 34.047733, "LONG": -118.257512, "LINE_DIR1": "51-S", "LINE_DIR2": null, "LINE_DIR3": 0, "LINE_DIR4": 0, "LINE_DIR5": 0, "LINE_DIR6": 0, "LINE_DIR7": 0, "LINE_DIR8": 0, "LINE_DIR9": 0, "LINE_DIR10": 0, "LINE_DIR11": 0, "LINE_DIR12": 0, "LINE_DIR13": 0, "LINE_DIR14": 0, "layer_id": "bus_stops", "feature_name": "Bus Stop" }, "geometry": { "type": "Point", "coordinates": [ -118.257512, 34.047733 ] } },
{ "type": "Feature", "properties": { "STOPNUM": 2826, "STOPNAME": "7th / Imperial", "LAT": 34.034696, "LONG": -118.231008, "LINE_DIR1": "60-N", "LINE_DIR2": "62-N", "LINE_DIR3": 0, "LINE_DIR4": 0, "LINE_DIR5": 0, "LINE_DIR6": 0, "LINE_DIR7": 0, "LINE_DIR8": 0, "LINE_DIR9": 0, "LINE_DIR10": 0, "LINE_DIR11": 0, "LINE_DIR12": 0, "LINE_DIR13": 0, "LINE_DIR14": 0, "layer_id": "bus_stops", "feature_name": "Bus Stop" }, "geometry": { "type": "Point", "coordinates": [ -118.231008, 34.034696 ] } },
{ "type": "Feature", "properties": { "STOPNUM": 2940, "STOPNAME": "Grand / Temple", "LAT": 34.057963, "LONG": -118.246923, "LINE_DIR1": "55-S", "LINE_DIR2": "60-S", "LINE_DIR3": 0, "LINE_DIR4": 0, "LINE_DIR5": 0, "LINE_DIR6": 0, "LINE_DIR7": 0, "LINE_DIR8": 0, "LINE_DIR9": 0, "LINE_DIR10": 0, "LINE_DIR11": 0, "LINE_DIR12": 0, "LINE_DIR13": 0, "LINE_DIR14": 0, "layer_id": "bus_stops", "feature_name": "Bus Stop" }, "geometry": { "type": "Point", "coordinates": [ -118.246923, 34.057963 ] } },
{ "type": "Feature", "properties": { "STOPNUM": 3026, "STOPNAME": "Los Angeles / Temple", "LAT": 34.054231, "LONG": -118.240223, "LINE_DIR1": "40-S", "LINE_DIR2": "106-S", "LINE_DIR3": 0, "LINE_DIR4": 0, "LINE_DIR5": 0, "LINE_DIR6": 0, "LINE_DIR7": 0, "LINE_DIR8": 0, "LINE_DIR9": 0, "LINE_DIR10": 0, "LINE_DIR11": 0, "LINE_DIR12": 0, "LINE_DIR13": 0, "LINE_DIR14": 0, "layer_id": "bus_stops", "feature_name": "Bus Stop" }, "geometry": { "type": "Point", "coordinates": [ -118.240223, 34.054231 ] } },
{ "type": "Feature", "properties": { "STOPNUM": 3102, "STOPNAME": "Spring / 2nd", "LAT": 34.051034, "LONG": -118.246348, "LINE_DIR1": "40-S", "LINE_DIR2": "92-S", "LINE_DIR3": 0, "LINE_DIR4": 0, "LINE_DIR5": 0, "LINE_DIR6": 0, "LINE_DIR7": 0, "LINE_DIR8": 0, "LINE_DIR9": 0, "LINE_DIR10": 0, "LINE_DIR11": 0, "LINE_DIR12": 0, "LINE_DIR13": 0, "LINE_DIR14": 0, "layer_id": "bus_stops", "feature_name": "Bus Stop" }, "geometry": { "type": "Point", "coordinates": [ -118.246348, 34.051034 ] } },
{ "type": "Feature", "properties": { "STOPNUM": 3103, "STOPNAME": "Cesar Chavez Transit Pavilion", "LAT": 34.056416, "LONG": -118.231639, "LINE_DIR1": "106-N", "LINE_DIR2": "78-E", "LINE_DIR3": 0, "LINE_DIR4": 0, "LINE_DIR5": 0, "LINE_DIR6": 0, "LINE_DIR7": 0, "LINE_DIR8": 0, "LINE_DIR9": 0, "LINE_DIR10": 0, "LINE_DIR11": 0, "LINE_DIR12": 0, "LINE_DIR13": 0, "LINE_DIR14": 0, "layer_id": "bus_stops", "feature_name": "Bus Stop" }, "geometry": { "type": "Point", "coordinates": [ -118.231639, 34.056416 ] } },
{ "type": "Feature", "properties": { "STOPNUM": 3121, "STOPNAME": "Main / 16th", "LAT": 34.033659, "LONG": -118.262347, "LINE_DIR1": "10-W", "LINE_DIR2": "55-N", "LINE_DIR3": 0, "LINE_DIR4": 0, "LINE_DIR5": 0, "LINE_DIR6": 0, "LINE_DIR7": 0, "LINE_DIR8": 0, "LINE_DIR9": 0, "LINE_DIR10": 0, "LINE_DIR11": 0, "LINE_DIR12": 0, "LINE_DIR13": 0, "LINE_DIR14": 0, "layer_id": "bus_stops", "feature_name": "Bus Stop" }, "geometry": { "type": "Point", "coordinates": [ -118.262347, 34.033659 ] } },
{ "type": "Feature", "properties": { "STOPNUM": 3149, "STOPNAME": "Maple / 30th", "LAT": 34.020477, "LONG": -118.267408, "LINE_DIR1": "10-E", "LINE_DIR2": null, "LINE_DIR3": 0, "LINE_DIR4": 0, "LINE_DIR5": 0, "LINE_DIR6": 0, "LINE_DIR7": 0, "LINE_DIR8": 0, "LINE_DIR9": 0, "LINE_DIR10": 0, "LINE_DIR11": 0, "LINE_DIR12": 0, "LINE_DIR13": 0, "LINE_DIR14": 0, "layer_id": "bus_stops", "feature_name": "Bus Stop" }, "geometry": { "type": "Point", "coordinates": [ -118.267408, 34.020477 ] } },
{ "type": "Feature", "properties": { "STOPNUM": 3154, "STOPNAME": "Maple / Adams", "LAT": 34.02327, "LONG": -118.265631, "LINE_DIR1": "10-E", "LINE_DIR2": null, "LINE_DIR3": 0, "LINE_DIR4": 0, "LINE_DIR5": 0, "LINE_DIR6": 0, "LINE_DIR7": 0, "LINE_DIR8": 0, "LINE_DIR9": 0, "LINE_DIR10": 0, "LINE_DIR11": 0, "LINE_DIR12": 0, "LINE_DIR13": 0, "LINE_DIR14": 0, "layer_id": "bus_stops", "feature_name": "Bus Stop" }, "geometry": { "type": "Point", "coordinates": [ -118.265631, 34.02327 ] } },
{ "type": "Feature", "properties": { "STOPNUM": 3161, "STOPNAME": "Maple Lot", "LAT": 34.042894, "LONG": -118.248198, "LINE_DIR1": "16-E", "LINE_DIR2": "460-W", "LINE_DIR3": 0, "LINE_DIR4": 0, "LINE_DIR5": 0, "LINE_DIR6": 0, "LINE_DIR7": 0, "LINE_DIR8": 0, "LINE_DIR9": 0, "LINE_DIR10": 0, "LINE_DIR11": 0, "LINE_DIR12": 0, "LINE_DIR13": 0, "LINE_DIR14": 0, "layer_id": "bus_stops", "feature_name": "Bus Stop" }, "geometry": { "type": "Point", "coordinates": [ -118.248198, 34.042894 ] } },
{ "type": "Feature", "properties": { "STOPNUM": 3234, "STOPNAME": "Vignes / Cesar E Chavez", "LAT": 34.056795, "LONG": -118.23169, "LINE_DIR1": "28-E", "LINE_DIR2": "33-E", "LINE_DIR3": 0, "LINE_DIR4": 0, "LINE_DIR5": 0, "LINE_DIR6": 0, "LINE_DIR7": 0, "LINE_DIR8": 0, "LINE_DIR9": 0, "LINE_DIR10": 0, "LINE_DIR11": 0, "LINE_DIR12": 0, "LINE_DIR13": 0, "LINE_DIR14": 0, "layer_id": "bus_stops", "feature_name": "Bus Stop" }, "geometry": { "type": "Point", "coordinates": [ -118.23169, 34.056795 ] } },
{ "type": "Feature", "properties": { "STOPNUM": 3263, "STOPNAME": "8th / Main", "LAT": 34.042656, "LONG": -118.252903, "LINE_DIR1": "66-W", "LINE_DIR2": null, "LINE_DIR3": 0, "LINE_DIR4": 0, "LINE_DIR5": 0, "LINE_DIR6": 0, "LINE_DIR7": 0, "LINE_DIR8": 0, "LINE_DIR9": 0, "LINE_DIR10": 0, "LINE_DIR11": 0, "LINE_DIR12": 0, "LINE_DIR13": 0, "LINE_DIR14": 0, "layer_id": "bus_stops", "feature_name": "Bus Stop" }, "geometry": { "type": "Point", "coordinates": [ -118.252903, 34.042656 ] } },
{ "type": "Feature", "properties": { "STOPNUM": 3300, "STOPNAME": "Union Station Patsaouras Bus Plaza", "LAT": 34.053972, "LONG": -118.232222, "LINE_DIR1": "487-E", "LINE_DIR2": "910-N", "LINE_DIR3": 0, "LINE_DIR4": 0, "LINE_DIR5": 0, "LINE_DIR6": 0, "LINE_DIR7": 0, "LINE_DIR8": 0, "LINE_DIR9": 0, "LINE_DIR10": 0, "LINE_DIR11": 0, "LINE_DIR12": 0, "LINE_DIR13": 0, "LINE_DIR14": 0, "layer_id": "bus_stops", "feature_name": "Bus Stop" }, "geometry": { "type": "Point", "coordinates": [ -118.232222, 34.053972 ] } },
{ "type": "Feature", "properties": { "STOPNUM": 3301, "STOPNAME": "Union Station Patsaouras Bus Plaza", "LAT": 34.053943, "LONG": -118.232454, "LINE_DIR1": "487-W", "LINE_DIR2": "910-S", "LINE_DIR3": 0, "LINE_DIR4": 0, "LINE_DIR5": 0, "LINE_DIR6": 0, "LINE_DIR7": 0, "LINE_DIR8": 0, "LINE_DIR9": 0, "LINE_DIR10": 0, "LINE_DIR11": 0, "LINE_DIR12": 0, "LINE_DIR13": 0, "LINE_DIR14": 0, "layer_id": "bus_stops", "feature_name": "Bus Stop" }, "geometry": { "type": "Point", "coordinates": [ -118.232454, 34.053943 ] } },
{ "type": "Feature", "properties": { "STOPNUM": 3331, "STOPNAME": "Alameda / Arcadia", "LAT": 34.054888, "LONG": -118.237544, "LINE_DIR1": "76-E", "LINE_DIR2": null, "LINE_DIR3": 0, "LINE_DIR4": 0, "LINE_DIR5": 0, "LINE_DIR6": 0, "LINE_DIR7": 0, "LINE_DIR8": 0, "LINE_DIR9": 0, "LINE_DIR10": 0, "LINE_DIR11": 0, "LINE_DIR12": 0, "LINE_DIR13": 0, "LINE_DIR14": 0, "layer_id": "bus_stops", "feature_name": "Bus Stop" }, "geometry": { "type": "Point", "coordinates": [ -118.237544, 34.054888 ] } },
{ "type": "Feature", "properties": { "STOPNUM": 3332, "STOPNAME": "Alameda / Los Angeles", "LAT": 34.056557, "LONG": -118.237206, "LINE_DIR1": "40-N", "LINE_DIR2": "106-N", "LINE_DIR3": 0, "LINE_DIR4": 0, "LINE_DIR5": 0, "LINE_DIR6": 0, "LINE_DIR7": 0, "LINE_DIR8": 0, "LINE_DIR9": 0, "LINE_DIR10": 0, "LINE_DIR11": 0, "LINE_DIR12": 0, "LINE_DIR13": 0, "LINE_DIR14": 0, "layer_id": "bus_stops", "feature_name": "Bus Stop" }, "geometry": { "type": "Point", "coordinates": [ -118.237206, 34.056557 ] } },
{ "type": "Feature", "properties": { "STOPNUM": 3357, "STOPNAME": "Alvarado / Beverly", "LAT": 34.066451, "LONG": -118.270275, "LINE_DIR1": "2-W", "LINE_DIR2": null, "LINE_DIR3": 0, "LINE_DIR4": 0, "LINE_DIR5": 0, "LINE_DIR6": 0, "LINE_DIR7": 0, "LINE_DIR8": 0, "LINE_DIR9": 0, "LINE_DIR10": 0, "LINE_DIR11": 0, "LINE_DIR12": 0, "LINE_DIR13": 0, "LINE_DIR14": 0, "layer_id": "bus_stops", "feature_name": "Bus Stop" }, "geometry": { "type": "Point", "coordinates": [ -118.270275, 34.066451 ] } },
{ "type": "Feature", "properties": { "STOPNUM": 3358, "STOPNAME": "Alvarado / Hollywood Fwy", "LAT": 34.071787, "LONG": -118.266885, "LINE_DIR1": "2-W", "LINE_DIR2": null, "LINE_DIR3": 0, "LINE_DIR4": 0, "LINE_DIR5": 0, "LINE_DIR6": 0, "LINE_DIR7": 0, "LINE_DIR8": 0, "LINE_DIR9": 0, "LINE_DIR10": 0, "LINE_DIR11": 0, "LINE_DIR12": 0, "LINE_DIR13": 0, "LINE_DIR14": 0, "layer_id": "bus_stops", "feature_name": "Bus Stop" }, "geometry": { "type": "Point", "coordinates": [ -118.266885, 34.071787 ] } },
{ "type": "Feature", "properties": { "STOPNUM": 3359, "STOPNAME": "Alvarado / Kent", "LAT": 34.074489, "LONG": -118.265213, "LINE_DIR1": "2-W", "LINE_DIR2": null, "LINE_DIR3": 0, "LINE_DIR4": 0, "LINE_DIR5": 0, "LINE_DIR6": 0, "LINE_DIR7": 0, "LINE_DIR8": 0, "LINE_DIR9": 0, "LINE_DIR10": 0, "LINE_DIR11": 0, "LINE_DIR12": 0, "LINE_DIR13": 0, "LINE_DIR14": 0, "layer_id": "bus_stops", "feature_name": "Bus Stop" }, "geometry": { "type": "Point", "coordinates": [ -118.265213, 34.074489 ] } },
{ "type": "Feature", "properties": { "STOPNUM": 3361, "STOPNAME": "Alvarado / Temple", "LAT": 34.070045, "LONG": -118.267999, "LINE_DIR1": "2-W", "LINE_DIR2": null, "LINE_DIR3": 0, "LINE_DIR4": 0, "LINE_DIR5": 0, "LINE_DIR6": 0, "LINE_DIR7": 0, "LINE_DIR8": 0, "LINE_DIR9": 0, "LINE_DIR10": 0, "LINE_DIR11": 0, "LINE_DIR12": 0, "LINE_DIR13": 0, "LINE_DIR14": 0, "layer_id": "bus_stops", "feature_name": "Bus Stop" }, "geometry": { "type": "Point", "coordinates": [ -118.267999, 34.070045 ] } },
{ "type": "Feature", "properties": { "STOPNUM": 3362, "STOPNAME": "Alvarado / Sunset", "LAT": 34.077928, "LONG": -118.263113, "LINE_DIR1": "93-N", "LINE_DIR2": null, "LINE_DIR3": 0, "LINE_DIR4": 0, "LINE_DIR5": 0, "LINE_DIR6": 0, "LINE_DIR7": 0, "LINE_DIR8": 0, "LINE_DIR9": 0, "LINE_DIR10": 0, "LINE_DIR11": 0, "LINE_DIR12": 0, "LINE_DIR13": 0, "LINE_DIR14": 0, "layer_id": "bus_stops", "feature_name": "Bus Stop" }, "geometry": { "type": "Point", "coordinates": [ -118.263113, 34.077928 ] } },
{ "type": "Feature", "properties": { "STOPNUM": 3411, "STOPNAME": "Broadway / Alpine", "LAT": 34.062155, "LONG": -118.238222, "LINE_DIR1": "45-N", "LINE_DIR2": null, "LINE_DIR3": 0, "LINE_DIR4": 0, "LINE_DIR5": 0, "LINE_DIR6": 0, "LINE_DIR7": 0, "LINE_DIR8": 0, "LINE_DIR9": 0, "LINE_DIR10": 0, "LINE_DIR11": 0, "LINE_DIR12": 0, "LINE_DIR13": 0, "LINE_DIR14": 0, "layer_id": "bus_stops", "feature_name": "Bus Stop" }, "geometry": { "type": "Point", "coordinates": [ -118.238222, 34.062155 ] } },
{ "type": "Feature", "properties": { "STOPNUM": 3413, "STOPNAME": "Broadway / Bernard", "LAT": 34.066674, "LONG": -118.235752, "LINE_DIR1": "45-N", "LINE_DIR2": null, "LINE_DIR3": 0, "LINE_DIR4": 0, "LINE_DIR5": 0, "LINE_DIR6": 0, "LINE_DIR7": 0, "LINE_DIR8": 0, "LINE_DIR9": 0, "LINE_DIR10": 0, "LINE_DIR11": 0, "LINE_DIR12": 0, "LINE_DIR13": 0, "LINE_DIR14": 0, "layer_id": "bus_stops", "feature_name": "Bus Stop" }, "geometry": { "type": "Point", "coordinates": [ -118.235752, 34.066674 ] } },
{ "type": "Feature", "properties": { "STOPNUM": 3414, "STOPNAME": "Broadway / Bishops", "LAT": 34.068657, "LONG": -118.233357, "LINE_DIR1": "45-N", "LINE_DIR2": null, "LINE_DIR3": 0, "LINE_DIR4": 0, "LINE_DIR5": 0, "LINE_DIR6": 0, "LINE_DIR7": 0, "LINE_DIR8": 0, "LINE_DIR9": 0, "LINE_DIR10": 0, "LINE_DIR11": 0, "LINE_DIR12": 0, "LINE_DIR13": 0, "LINE_DIR14": 0, "layer_id": "bus_stops", "feature_name": "Bus Stop" }, "geometry": { "type": "Point", "coordinates": [ -118.233357, 34.068657 ] } },
{ "type": "Feature", "properties": { "STOPNUM": 3416, "STOPNAME": "Broadway / Chinatown", "LAT": 34.065084, "LONG": -118.236725, "LINE_DIR1": "45-N", "LINE_DIR2": null, "LINE_DIR3": 0, "LINE_DIR4": 0, "LINE_DIR5": 0, "LINE_DIR6": 0, "LINE_DIR7": 0, "LINE_DIR8": 0, "LINE_DIR9": 0, "LINE_DIR10": 0, "LINE_DIR11": 0, "LINE_DIR12": 0, "LINE_DIR13": 0, "LINE_DIR14": 0, "layer_id": "bus_stops", "feature_name": "Bus Stop" }, "geometry": { "type": "Point", "coordinates": [ -118.236725, 34.065084 ] } },
{ "type": "Feature", "properties": { "STOPNUM": 3421, "STOPNAME": "Broadway / Ord", "LAT": 34.060169, "LONG": -118.23923, "LINE_DIR1": "45-N", "LINE_DIR2": null, "LINE_DIR3": 0, "LINE_DIR4": 0, "LINE_DIR5": 0, "LINE_DIR6": 0, "LINE_DIR7": 0, "LINE_DIR8": 0, "LINE_DIR9": 0, "LINE_DIR10": 0, "LINE_DIR11": 0, "LINE_DIR12": 0, "LINE_DIR13": 0, "LINE_DIR14": 0, "layer_id": "bus_stops", "feature_name": "Bus Stop" }, "geometry": { "type": "Point", "coordinates": [ -118.23923, 34.060169 ] } },
{ "type": "Feature", "properties": { "STOPNUM": 3426, "STOPNAME": "Broadway / Solano", "LAT": 34.070826, "LONG": -118.230143, "LINE_DIR1": "45-N", "LINE_DIR2": null, "LINE_DIR3": 0, "LINE_DIR4": 0, "LINE_DIR5": 0, "LINE_DIR6": 0, "LINE_DIR7": 0, "LINE_DIR8": 0, "LINE_DIR9": 0, "LINE_DIR10": 0, "LINE_DIR11": 0, "LINE_DIR12": 0, "LINE_DIR13": 0, "LINE_DIR14": 0, "layer_id": "bus_stops", "feature_name": "Bus Stop" }, "geometry": { "type": "Point", "coordinates": [ -118.230143, 34.070826 ] } },
{ "type": "Feature", "properties": { "STOPNUM": 3429, "STOPNAME": "Broadway / College", "LAT": 34.063852, "LONG": -118.237371, "LINE_DIR1": "45-N", "LINE_DIR2": null, "LINE_DIR3": 0, "LINE_DIR4": 0, "LINE_DIR5": 0, "LINE_DIR6": 0, "LINE_DIR7": 0, "LINE_DIR8": 0, "LINE_DIR9": 0, "LINE_DIR10": 0, "LINE_DIR11": 0, "LINE_DIR12": 0, "LINE_DIR13": 0, "LINE_DIR14": 0, "layer_id": "bus_stops", "feature_name": "Bus Stop" }, "geometry": { "type": "Point", "coordinates": [ -118.237371, 34.063852 ] } },
{ "type": "Feature", "properties": { "STOPNUM": 3507, "STOPNAME": "Figueroa / Diamond", "LAT": 34.058301, "LONG": -118.251183, "LINE_DIR1": "55-N", "LINE_DIR2": null, "LINE_DIR3": 0, "LINE_DIR4": 0, "LINE_DIR5": 0, "LINE_DIR6": 0, "LINE_DIR7": 0, "LINE_DIR8": 0, "LINE_DIR9": 0, "LINE_DIR10": 0, "LINE_DIR11": 0, "LINE_DIR12": 0, "LINE_DIR13": 0, "LINE_DIR14": 0, "layer_id": "bus_stops", "feature_name": "Bus Stop" }, "geometry": { "type": "Point", "coordinates": [ -118.251183, 34.058301 ] } },
{ "type": "Feature", "properties": { "STOPNUM": 3531, "STOPNAME": "Olympic / Main", "LAT": 34.040189, "LONG": -118.256598, "LINE_DIR1": "92-S", "LINE_DIR2": null, "LINE_DIR3": 0, "LINE_DIR4": 0, "LINE_DIR5": 0, "LINE_DIR6": 0, "LINE_DIR7": 0, "LINE_DIR8": 0, "LINE_DIR9": 0, "LINE_DIR10": 0, "LINE_DIR11": 0, "LINE_DIR12": 0, "LINE_DIR13": 0, "LINE_DIR14": 0, "layer_id": "bus_stops", "feature_name": "Bus Stop" }, "geometry": { "type": "Point", "coordinates": [ -118.256598, 34.040189 ] } },
{ "type": "Feature", "properties": { "STOPNUM": 3538, "STOPNAME": "Figueroa / Temple", "LAT": 34.059586, "LONG": -118.248657, "LINE_DIR1": "55-N", "LINE_DIR2": null, "LINE_DIR3": 0, "LINE_DIR4": 0, "LINE_DIR5": 0, "LINE_DIR6": 0, "LINE_DIR7": 0, "LINE_DIR8": 0, "LINE_DIR9": 0, "LINE_DIR10": 0, "LINE_DIR11": 0, "LINE_DIR12": 0, "LINE_DIR13": 0, "LINE_DIR14": 0, "layer_id": "bus_stops", "feature_name": "Bus Stop" }, "geometry": { "type": "Point", "coordinates": [ -118.248657, 34.059586 ] } },
{ "type": "Feature", "properties": { "STOPNUM": 3587, "STOPNAME": "Temple / Grand", "LAT": 34.057114, "LONG": -118.245438, "LINE_DIR1": "10-E", "LINE_DIR2": "92-S", "LINE_DIR3": 0, "LINE_DIR4": 0, "LINE_DIR5": 0, "LINE_DIR6": 0, "LINE_DIR7": 0, "LINE_DIR8": 0, "LINE_DIR9": 0, "LINE_DIR10": 0, "LINE_DIR11": 0, "LINE_DIR12": 0, "LINE_DIR13": 0, "LINE_DIR14": 0, "layer_id": "bus_stops", "feature_name": "Bus Stop" }, "geometry": { "type": "Point", "coordinates": [ -118.245438, 34.057114 ] } },
{ "type": "Feature", "properties": { "STOPNUM": 3611, "STOPNAME": "Hill / Alpine", "LAT": 34.062537, "LONG": -118.239514, "LINE_DIR1": "81-N", "LINE_DIR2": "94-N", "LINE_DIR3": 0, "LINE_DIR4": 0, "LINE_DIR5": 0, "LINE_DIR6": 0, "LINE_DIR7": 0, "LINE_DIR8": 0, "LINE_DIR9": 0, "LINE_DIR10": 0, "LINE_DIR11": 0, "LINE_DIR12": 0, "LINE_DIR13": 0, "LINE_DIR14": 0, "layer_id": "bus_stops", "feature_name": "Bus Stop" }, "geometry": { "type": "Point", "coordinates": [ -118.239514, 34.062537 ] } },
{ "type": "Feature", "properties": { "STOPNUM": 3612, "STOPNAME": "Hill / Ord", "LAT": 34.060969, "LONG": -118.240249, "LINE_DIR1": "81-N", "LINE_DIR2": "94-N", "LINE_DIR3": 0, "LINE_DIR4": 0, "LINE_DIR5": 0, "LINE_DIR6": 0, "LINE_DIR7": 0, "LINE_DIR8": 0, "LINE_DIR9": 0, "LINE_DIR10": 0, "LINE_DIR11": 0, "LINE_DIR12": 0, "LINE_DIR13": 0, "LINE_DIR14": 0, "layer_id": "bus_stops", "feature_name": "Bus Stop" }, "geometry": { "type": "Point", "coordinates": [ -118.240249, 34.060969 ] } },
{ "type": "Feature", "properties": { "STOPNUM": 3616, "STOPNAME": "Hill / College", "LAT": 34.064267, "LONG": -118.238644, "LINE_DIR1": "81-N", "LINE_DIR2": "94-N", "LINE_DIR3": 0, "LINE_DIR4": 0, "LINE_DIR5": 0, "LINE_DIR6": 0, "LINE_DIR7": 0, "LINE_DIR8": 0, "LINE_DIR9": 0, "LINE_DIR10": 0, "LINE_DIR11": 0, "LINE_DIR12": 0, "LINE_DIR13": 0, "LINE_DIR14": 0, "layer_id": "bus_stops", "feature_name": "Bus Stop" }, "geometry": { "type": "Point", "coordinates": [ -118.238644, 34.064267 ] } },
{ "type": "Feature", "properties": { "STOPNUM": 3634, "STOPNAME": "Figueroa / Jefferson", "LAT": 34.022235, "LONG": -118.279609, "LINE_DIR1": "81-N", "LINE_DIR2": null, "LINE_DIR3": 0, "LINE_DIR4": 0, "LINE_DIR5": 0, "LINE_DIR6": 0, "LINE_DIR7": 0, "LINE_DIR8": 0, "LINE_DIR9": 0, "LINE_DIR10": 0, "LINE_DIR11": 0, "LINE_DIR12": 0, "LINE_DIR13": 0, "LINE_DIR14": 0, "layer_id": "bus_stops", "feature_name": "Bus Stop" }, "geometry": { "type": "Point", "coordinates": [ -118.279609, 34.022235 ] } },
{ "type": "Feature", "properties": { "STOPNUM": 3637, "STOPNAME": "Figueroa / Adams", "LAT": 34.027979, "LONG": -118.276293, "LINE_DIR1": "81-S", "LINE_DIR2": null, "LINE_DIR3": 0, "LINE_DIR4": 0, "LINE_DIR5": 0, "LINE_DIR6": 0, "LINE_DIR7": 0, "LINE_DIR8": 0, "LINE_DIR9": 0, "LINE_DIR10": 0, "LINE_DIR11": 0, "LINE_DIR12": 0, "LINE_DIR13": 0, "LINE_DIR14": 0, "layer_id": "bus_stops", "feature_name": "Bus Stop" }, "geometry": { "type": "Point", "coordinates": [ -118.276293, 34.027979 ] } },
{ "type": "Feature", "properties": { "STOPNUM": 3674, "STOPNAME": "Flower / 7th", "LAT": 34.048546, "LONG": -118.259061, "LINE_DIR1": "460-E", "LINE_DIR2": "910-S", "LINE_DIR3": 0, "LINE_DIR4": 0, "LINE_DIR5": 0, "LINE_DIR6": 0, "LINE_DIR7": 0, "LINE_DIR8": 0, "LINE_DIR9": 0, "LINE_DIR10": 0, "LINE_DIR11": 0, "LINE_DIR12": 0, "LINE_DIR13": 0, "LINE_DIR14": 0, "layer_id": "bus_stops", "feature_name": "Bus Stop" }, "geometry": { "type": "Point", "coordinates": [ -118.259061, 34.048546 ] } },
{ "type": "Feature", "properties": { "STOPNUM": 3691, "STOPNAME": "Central / Washington", "LAT": 34.0246, "LONG": -118.250167, "LINE_DIR1": "53-N", "LINE_DIR2": null, "LINE_DIR3": 0, "LINE_DIR4": 0, "LINE_DIR5": 0, "LINE_DIR6": 0, "LINE_DIR7": 0, "LINE_DIR8": 0, "LINE_DIR9": 0, "LINE_DIR10": 0, "LINE_DIR11": 0, "LINE_DIR12": 0, "LINE_DIR13": 0, "LINE_DIR14": 0, "layer_id": "bus_stops", "feature_name": "Bus Stop" }, "geometry": { "type": "Point", "coordinates": [ -118.250167, 34.0246 ] } },
{ "type": "Feature", "properties": { "STOPNUM": 3692, "STOPNAME": "Figueroa / 30th", "LAT": 34.025233, "LONG": -118.277688, "LINE_DIR1": "81-N", "LINE_DIR2": null, "LINE_DIR3": 0, "LINE_DIR4": 0, "LINE_DIR5": 0, "LINE_DIR6": 0, "LINE_DIR7": 0, "LINE_DIR8": 0, "LINE_DIR9": 0, "LINE_DIR10": 0, "LINE_DIR11": 0, "LINE_DIR12": 0, "LINE_DIR13": 0, "LINE_DIR14": 0, "layer_id": "bus_stops", "feature_name": "Bus Stop" }, "geometry": { "type": "Point", "coordinates": [ -118.277688, 34.025233 ] } },
{ "type": "Feature", "properties": { "STOPNUM": 3708, "STOPNAME": "Division 13 Layover", "LAT": 34.056702, "LONG": -118.230819, "LINE_DIR1": "28-E", "LINE_DIR2": "40-S", "LINE_DIR3": 0, "LINE_DIR4": 0, "LINE_DIR5": 0, "LINE_DIR6": 0, "LINE_DIR7": 0, "LINE_DIR8": 0, "LINE_DIR9": 0, "LINE_DIR10": 0, "LINE_DIR11": 0, "LINE_DIR12": 0, "LINE_DIR13": 0, "LINE_DIR14": 0, "layer_id": "bus_stops", "feature_name": "Bus Stop" }, "geometry": { "type": "Point", "coordinates": [ -118.230819, 34.056702 ] } },
{ "type": "Feature", "properties": { "STOPNUM": 3716, "STOPNAME": "Central / 6th", "LAT": 34.038656, "LONG": -118.240145, "LINE_DIR1": "53-S", "LINE_DIR2": null, "LINE_DIR3": 0, "LINE_DIR4": 0, "LINE_DIR5": 0, "LINE_DIR6": 0, "LINE_DIR7": 0, "LINE_DIR8": 0, "LINE_DIR9": 0, "LINE_DIR10": 0, "LINE_DIR11": 0, "LINE_DIR12": 0, "LINE_DIR13": 0, "LINE_DIR14": 0, "layer_id": "bus_stops", "feature_name": "Bus Stop" }, "geometry": { "type": "Point", "coordinates": [ -118.240145, 34.038656 ] } },
{ "type": "Feature", "properties": { "STOPNUM": 3744, "STOPNAME": "Los Angeles / 1st", "LAT": 34.051697, "LONG": -118.242117, "LINE_DIR1": "40-N", "LINE_DIR2": null, "LINE_DIR3": 0, "LINE_DIR4": 0, "LINE_DIR5": 0, "LINE_DIR6": 0, "LINE_DIR7": 0, "LINE_DIR8": 0, "LINE_DIR9": 0, "LINE_DIR10": 0, "LINE_DIR11": 0, "LINE_DIR12": 0, "LINE_DIR13": 0, "LINE_DIR14": 0, "layer_id": "bus_stops", "feature_name": "Bus Stop" }, "geometry": { "type": "Point", "coordinates": [ -118.242117, 34.051697 ] } },
{ "type": "Feature", "properties": { "STOPNUM": 3745, "STOPNAME": "Los Angeles / Temple", "LAT": 34.053599, "LONG": -118.240594, "LINE_DIR1": "40-N", "LINE_DIR2": "106-N", "LINE_DIR3": 0, "LINE_DIR4": 0, "LINE_DIR5": 0, "LINE_DIR6": 0, "LINE_DIR7": 0, "LINE_DIR8": 0, "LINE_DIR9": 0, "LINE_DIR10": 0, "LINE_DIR11": 0, "LINE_DIR12": 0, "LINE_DIR13": 0, "LINE_DIR14": 0, "layer_id": "bus_stops", "feature_name": "Bus Stop" }, "geometry": { "type": "Point", "coordinates": [ -118.240594, 34.053599 ] } },
{ "type": "Feature", "properties": { "STOPNUM": 3749, "STOPNAME": "3rd / Lucas", "LAT": 34.058125, "LONG": -118.261518, "LINE_DIR1": "16-E", "LINE_DIR2": null, "LINE_DIR3": 0, "LINE_DIR4": 0, "LINE_DIR5": 0, "LINE_DIR6": 0, "LINE_DIR7": 0, "LINE_DIR8": 0, "LINE_DIR9": 0, "LINE_DIR10": 0, "LINE_DIR11": 0, "LINE_DIR12": 0, "LINE_DIR13": 0, "LINE_DIR14": 0, "layer_id": "bus_stops", "feature_name": "Bus Stop" }, "geometry": { "type": "Point", "coordinates": [ -118.261518, 34.058125 ] } },
{ "type": "Feature", "properties": { "STOPNUM": 3773, "STOPNAME": "Main / Ann", "LAT": 34.064616, "LONG": -118.231345, "LINE_DIR1": "76-E", "LINE_DIR2": null, "LINE_DIR3": 0, "LINE_DIR4": 0, "LINE_DIR5": 0, "LINE_DIR6": 0, "LINE_DIR7": 0, "LINE_DIR8": 0, "LINE_DIR9": 0, "LINE_DIR10": 0, "LINE_DIR11": 0, "LINE_DIR12": 0, "LINE_DIR13": 0, "LINE_DIR14": 0, "layer_id": "bus_stops", "feature_name": "Bus Stop" }, "geometry": { "type": "Point", "coordinates": [ -118.231345, 34.064616 ] } },
{ "type": "Feature", "properties": { "STOPNUM": 3780, "STOPNAME": "Main / Vignes", "LAT": 34.061097, "LONG": -118.235218, "LINE_DIR1": "76-E", "LINE_DIR2": null, "LINE_DIR3": 0, "LINE_DIR4": 0, "LINE_DIR5": 0, "LINE_DIR6": 0, "LINE_DIR7": 0, "LINE_DIR8": 0, "LINE_DIR9": 0, "LINE_DIR10": 0, "LINE_DIR11": 0, "LINE_DIR12": 0, "LINE_DIR13": 0, "LINE_DIR14": 0, "layer_id": "bus_stops", "feature_name": "Bus Stop" }, "geometry": { "type": "Point", "coordinates": [ -118.235218, 34.061097 ] } },
{ "type": "Feature", "properties": { "STOPNUM": 3784, "STOPNAME": "Main / Temple", "LAT": 34.054147, "LONG": -118.241375, "LINE_DIR1": "33-E", "LINE_DIR2": null, "LINE_DIR3": 0, "LINE_DIR4": 0, "LINE_DIR5": 0, "LINE_DIR6": 0, "LINE_DIR7": 0, "LINE_DIR8": 0, "LINE_DIR9": 0, "LINE_DIR10": 0, "LINE_DIR11": 0, "LINE_DIR12": 0, "LINE_DIR13": 0, "LINE_DIR14": 0, "layer_id": "bus_stops", "feature_name": "Bus Stop" }, "geometry": { "type": "Point", "coordinates": [ -118.241375, 34.054147 ] } },
{ "type": "Feature", "properties": { "STOPNUM": 3931, "STOPNAME": "Spring / Cesar E Chavez", "LAT": 34.057507, "LONG": -118.240081, "LINE_DIR1": "70-E", "LINE_DIR2": "78-E", "LINE_DIR3": 0, "LINE_DIR4": 0, "LINE_DIR5": 0, "LINE_DIR6": 0, "LINE_DIR7": 0, "LINE_DIR8": 0, "LINE_DIR9": 0, "LINE_DIR10": 0, "LINE_DIR11": 0, "LINE_DIR12": 0, "LINE_DIR13": 0, "LINE_DIR14": 0, "layer_id": "bus_stops", "feature_name": "Bus Stop" }, "geometry": { "type": "Point", "coordinates": [ -118.240081, 34.057507 ] } },
{ "type": "Feature", "properties": { "STOPNUM": 3934, "STOPNAME": "Spring / Temple", "LAT": 34.055274, "LONG": -118.242378, "LINE_DIR1": "28-W", "LINE_DIR2": "487-W", "LINE_DIR3": 0, "LINE_DIR4": 0, "LINE_DIR5": 0, "LINE_DIR6": 0, "LINE_DIR7": 0, "LINE_DIR8": 0, "LINE_DIR9": 0, "LINE_DIR10": 0, "LINE_DIR11": 0, "LINE_DIR12": 0, "LINE_DIR13": 0, "LINE_DIR14": 0, "layer_id": "bus_stops", "feature_name": "Bus Stop" }, "geometry": { "type": "Point", "coordinates": [ -118.242378, 34.055274 ] } },
{ "type": "Feature", "properties": { "STOPNUM": 3935, "STOPNAME": "Spring / Temple", "LAT": 34.054699, "LONG": -118.242704, "LINE_DIR1": "78-E", "LINE_DIR2": null, "LINE_DIR3": 0, "LINE_DIR4": 0, "LINE_DIR5": 0, "LINE_DIR6": 0, "LINE_DIR7": 0, "LINE_DIR8": 0, "LINE_DIR9": 0, "LINE_DIR10": 0, "LINE_DIR11": 0, "LINE_DIR12": 0, "LINE_DIR13": 0, "LINE_DIR14": 0, "layer_id": "bus_stops", "feature_name": "Bus Stop" }, "geometry": { "type": "Point", "coordinates": [ -118.242704, 34.054699 ] } },
{ "type": "Feature", "properties": { "STOPNUM": 3937, "STOPNAME": "Temple / Spring", "LAT": 34.054916, "LONG": -118.242843, "LINE_DIR1": "92-S", "LINE_DIR2": null, "LINE_DIR3": 0, "LINE_DIR4": 0, "LINE_DIR5": 0, "LINE_DIR6": 0, "LINE_DIR7": 0, "LINE_DIR8": 0, "LINE_DIR9": 0, "LINE_DIR10": 0, "LINE_DIR11": 0, "LINE_DIR12": 0, "LINE_DIR13": 0, "LINE_DIR14": 0, "layer_id": "bus_stops", "feature_name": "Bus Stop" }, "geometry": { "type": "Point", "coordinates": [ -118.242843, 34.054916 ] } },
{ "type": "Feature", "properties": { "STOPNUM": 3947, "STOPNAME": "Temple / Rosemont", "LAT": 34.071082, "LONG": -118.270888, "LINE_DIR1": "10-E", "LINE_DIR2": null, "LINE_DIR3": 0, "LINE_DIR4": 0, "LINE_DIR5": 0, "LINE_DIR6": 0, "LINE_DIR7": 0, "LINE_DIR8": 0, "LINE_DIR9": 0, "LINE_DIR10": 0, "LINE_DIR11": 0, "LINE_DIR12": 0, "LINE_DIR13": 0, "LINE_DIR14": 0, "layer_id": "bus_stops", "feature_name": "Bus Stop" }, "geometry": { "type": "Point", "coordinates": [ -118.270888, 34.071082 ] } },
{ "type": "Feature", "properties": { "STOPNUM": 4071, "STOPNAME": "Edgeware / Boston", "LAT": 34.067365, "LONG": -118.254066, "LINE_DIR1": "92-N", "LINE_DIR2": null, "LINE_DIR3": 0, "LINE_DIR4": 0, "LINE_DIR5": 0, "LINE_DIR6": 0, "LINE_DIR7": 0, "LINE_DIR8": 0, "LINE_DIR9": 0, "LINE_DIR10": 0, "LINE_DIR11": 0, "LINE_DIR12": 0, "LINE_DIR13": 0, "LINE_DIR14": 0, "layer_id": "bus_stops", "feature_name": "Bus Stop" }, "geometry": { "type": "Point", "coordinates": [ -118.254066, 34.067365 ] } },
{ "type": "Feature", "properties": { "STOPNUM": 4085, "STOPNAME": "23rd / Flower", "LAT": 34.030002, "LONG": -118.272902, "LINE_DIR1": "93-S", "LINE_DIR2": null, "LINE_DIR3": 0, "LINE_DIR4": 0, "LINE_DIR5": 0, "LINE_DIR6": 0, "LINE_DIR7": 0, "LINE_DIR8": 0, "LINE_DIR9": 0, "LINE_DIR10": 0, "LINE_DIR11": 0, "LINE_DIR12": 0, "LINE_DIR13": 0, "LINE_DIR14": 0, "layer_id": "bus_stops", "feature_name": "Bus Stop" }, "geometry": { "type": "Point", "coordinates": [ -118.272902, 34.030002 ] } },
{ "type": "Feature", "properties": { "STOPNUM": 4105, "STOPNAME": "Olive / General Thaddeus Kosciuszko", "LAT": 34.053042, "LONG": -118.249358, "LINE_DIR1": "14-N", "LINE_DIR2": "487-E", "LINE_DIR3": 0, "LINE_DIR4": 0, "LINE_DIR5": 0, "LINE_DIR6": 0, "LINE_DIR7": 0, "LINE_DIR8": 0, "LINE_DIR9": 0, "LINE_DIR10": 0, "LINE_DIR11": 0, "LINE_DIR12": 0, "LINE_DIR13": 0, "LINE_DIR14": 0, "layer_id": "bus_stops", "feature_name": "Bus Stop" }, "geometry": { "type": "Point", "coordinates": [ -118.249358, 34.053042 ] } },
{ "type": "Feature", "properties": { "STOPNUM": 4117, "STOPNAME": "Olympic / Central", "LAT": 34.031755, "LONG": -118.244017, "LINE_DIR1": "66-E", "LINE_DIR2": null, "LINE_DIR3": 0, "LINE_DIR4": 0, "LINE_DIR5": 0, "LINE_DIR6": 0, "LINE_DIR7": 0, "LINE_DIR8": 0, "LINE_DIR9": 0, "LINE_DIR10": 0, "LINE_DIR11": 0, "LINE_DIR12": 0, "LINE_DIR13": 0, "LINE_DIR14": 0, "layer_id": "bus_stops", "feature_name": "Bus Stop" }, "geometry": { "type": "Point", "coordinates": [ -118.244017, 34.031755 ] } },
{ "type": "Feature", "properties": { "STOPNUM": 4165, "STOPNAME": "Olympic / Alvarado", "LAT": 34.05152, "LONG": -118.279685, "LINE_DIR1": "28-E", "LINE_DIR2": null, "LINE_DIR3": 0, "LINE_DIR4": 0, "LINE_DIR5": 0, "LINE_DIR6": 0, "LINE_DIR7": 0, "LINE_DIR8": 0, "LINE_DIR9": 0, "LINE_DIR10": 0, "LINE_DIR11": 0, "LINE_DIR12": 0, "LINE_DIR13": 0, "LINE_DIR14": 0, "layer_id": "bus_stops", "feature_name": "Bus Stop" }, "geometry": { "type": "Point", "coordinates": [ -118.279685, 34.05152 ] } },
{ "type": "Feature", "properties": { "STOPNUM": 4169, "STOPNAME": "Olympic / Union", "LAT": 34.048996, "LONG": -118.274045, "LINE_DIR1": "28-E", "LINE_DIR2": null, "LINE_DIR3": 0, "LINE_DIR4": 0, "LINE_DIR5": 0, "LINE_DIR6": 0, "LINE_DIR7": 0, "LINE_DIR8": 0, "LINE_DIR9": 0, "LINE_DIR10": 0, "LINE_DIR11": 0, "LINE_DIR12": 0, "LINE_DIR13": 0, "LINE_DIR14": 0, "layer_id": "bus_stops", "feature_name": "Bus Stop" }, "geometry": { "type": "Point", "coordinates": [ -118.274045, 34.048996 ] } },
{ "type": "Feature", "properties": { "STOPNUM": 4170, "STOPNAME": "Olympic / Figueroa", "LAT": 34.04479, "LONG": -118.263831, "LINE_DIR1": "28-E", "LINE_DIR2": null, "LINE_DIR3": 0, "LINE_DIR4": 0, "LINE_DIR5": 0, "LINE_DIR6": 0, "LINE_DIR7": 0, "LINE_DIR8": 0, "LINE_DIR9": 0, "LINE_DIR10": 0, "LINE_DIR11": 0, "LINE_DIR12": 0, "LINE_DIR13": 0, "LINE_DIR14": 0, "layer_id": "bus_stops", "feature_name": "Bus Stop" }, "geometry": { "type": "Point", "coordinates": [ -118.263831, 34.04479 ] } },
{ "type": "Feature", "properties": { "STOPNUM": 4219, "STOPNAME": "Olympic / Figueroa", "LAT": 34.045185, "LONG": -118.264159, "LINE_DIR1": "28-W", "LINE_DIR2": null, "LINE_DIR3": 0, "LINE_DIR4": 0, "LINE_DIR5": 0, "LINE_DIR6": 0, "LINE_DIR7": 0, "LINE_DIR8": 0, "LINE_DIR9": 0, "LINE_DIR10": 0, "LINE_DIR11": 0, "LINE_DIR12": 0, "LINE_DIR13": 0, "LINE_DIR14": 0, "layer_id": "bus_stops", "feature_name": "Bus Stop" }, "geometry": { "type": "Point", "coordinates": [ -118.264159, 34.045185 ] } },
{ "type": "Feature", "properties": { "STOPNUM": 4654, "STOPNAME": "Alvarado / Valley", "LAT": 34.064635, "LONG": -118.271445, "LINE_DIR1": "2-W", "LINE_DIR2": null, "LINE_DIR3": 0, "LINE_DIR4": 0, "LINE_DIR5": 0, "LINE_DIR6": 0, "LINE_DIR7": 0, "LINE_DIR8": 0, "LINE_DIR9": 0, "LINE_DIR10": 0, "LINE_DIR11": 0, "LINE_DIR12": 0, "LINE_DIR13": 0, "LINE_DIR14": 0, "layer_id": "bus_stops", "feature_name": "Bus Stop" }, "geometry": { "type": "Point", "coordinates": [ -118.271445, 34.064635 ] } },
{ "type": "Feature", "properties": { "STOPNUM": 4657, "STOPNAME": "Alvarado / 3rd", "LAT": 34.062728, "LONG": -118.272664, "LINE_DIR1": "2-W", "LINE_DIR2": null, "LINE_DIR3": 0, "LINE_DIR4": 0, "LINE_DIR5": 0, "LINE_DIR6": 0, "LINE_DIR7": 0, "LINE_DIR8": 0, "LINE_DIR9": 0, "LINE_DIR10": 0, "LINE_DIR11": 0, "LINE_DIR12": 0, "LINE_DIR13": 0, "LINE_DIR14": 0, "layer_id": "bus_stops", "feature_name": "Bus Stop" }, "geometry": { "type": "Point", "coordinates": [ -118.272664, 34.062728 ] } },
{ "type": "Feature", "properties": { "STOPNUM": 4658, "STOPNAME": "Alvarado / 6th", "LAT": 34.059302, "LONG": -118.274841, "LINE_DIR1": "2-W", "LINE_DIR2": null, "LINE_DIR3": 0, "LINE_DIR4": 0, "LINE_DIR5": 0, "LINE_DIR6": 0, "LINE_DIR7": 0, "LINE_DIR8": 0, "LINE_DIR9": 0, "LINE_DIR10": 0, "LINE_DIR11": 0, "LINE_DIR12": 0, "LINE_DIR13": 0, "LINE_DIR14": 0, "layer_id": "bus_stops", "feature_name": "Bus Stop" }, "geometry": { "type": "Point", "coordinates": [ -118.274841, 34.059302 ] } },
{ "type": "Feature", "properties": { "STOPNUM": 4659, "STOPNAME": "Alvarado / 7th", "LAT": 34.056275, "LONG": -118.276763, "LINE_DIR1": "2-W", "LINE_DIR2": null, "LINE_DIR3": 0, "LINE_DIR4": 0, "LINE_DIR5": 0, "LINE_DIR6": 0, "LINE_DIR7": 0, "LINE_DIR8": 0, "LINE_DIR9": 0, "LINE_DIR10": 0, "LINE_DIR11": 0, "LINE_DIR12": 0, "LINE_DIR13": 0, "LINE_DIR14": 0, "layer_id": "bus_stops", "feature_name": "Bus Stop" }, "geometry": { "type": "Point", "coordinates": [ -118.276763, 34.056275 ] } },
{ "type": "Feature", "properties": { "STOPNUM": 4660, "STOPNAME": "Alvarado / 8th", "LAT": 34.054654, "LONG": -118.277794, "LINE_DIR1": "2-W", "LINE_DIR2": null, "LINE_DIR3": 0, "LINE_DIR4": 0, "LINE_DIR5": 0, "LINE_DIR6": 0, "LINE_DIR7": 0, "LINE_DIR8": 0, "LINE_DIR9": 0, "LINE_DIR10": 0, "LINE_DIR11": 0, "LINE_DIR12": 0, "LINE_DIR13": 0, "LINE_DIR14": 0, "layer_id": "bus_stops", "feature_name": "Bus Stop" }, "geometry": { "type": "Point", "coordinates": [ -118.277794, 34.054654 ] } },
{ "type": "Feature", "properties": { "STOPNUM": 4661, "STOPNAME": "Alvarado / James M Wood", "LAT": 34.053203, "LONG": -118.27872, "LINE_DIR1": "2-W", "LINE_DIR2": null, "LINE_DIR3": 0, "LINE_DIR4": 0, "LINE_DIR5": 0, "LINE_DIR6": 0, "LINE_DIR7": 0, "LINE_DIR8": 0, "LINE_DIR9": 0, "LINE_DIR10": 0, "LINE_DIR11": 0, "LINE_DIR12": 0, "LINE_DIR13": 0, "LINE_DIR14": 0, "layer_id": "bus_stops", "feature_name": "Bus Stop" }, "geometry": { "type": "Point", "coordinates": [ -118.27872, 34.053203 ] } },
{ "type": "Feature", "properties": { "STOPNUM": 4662, "STOPNAME": "Alvarado / Maryland", "LAT": 34.061057, "LONG": -118.273725, "LINE_DIR1": "2-W", "LINE_DIR2": null, "LINE_DIR3": 0, "LINE_DIR4": 0, "LINE_DIR5": 0, "LINE_DIR6": 0, "LINE_DIR7": 0, "LINE_DIR8": 0, "LINE_DIR9": 0, "LINE_DIR10": 0, "LINE_DIR11": 0, "LINE_DIR12": 0, "LINE_DIR13": 0, "LINE_DIR14": 0, "layer_id": "bus_stops", "feature_name": "Bus Stop" }, "geometry": { "type": "Point", "coordinates": [ -118.273725, 34.061057 ] } },
{ "type": "Feature", "properties": { "STOPNUM": 4663, "STOPNAME": "Alvarado / Olympic", "LAT": 34.051497, "LONG": -118.279807, "LINE_DIR1": "2-W", "LINE_DIR2": null, "LINE_DIR3": 0, "LINE_DIR4": 0, "LINE_DIR5": 0, "LINE_DIR6": 0, "LINE_DIR7": 0, "LINE_DIR8": 0, "LINE_DIR9": 0, "LINE_DIR10": 0, "LINE_DIR11": 0, "LINE_DIR12": 0, "LINE_DIR13": 0, "LINE_DIR14": 0, "layer_id": "bus_stops", "feature_name": "Bus Stop" }, "geometry": { "type": "Point", "coordinates": [ -118.279807, 34.051497 ] } },
{ "type": "Feature", "properties": { "STOPNUM": 4675, "STOPNAME": "Flower / Olympic", "LAT": 34.044218, "LONG": -118.26308, "LINE_DIR1": "910-S", "LINE_DIR2": "460-E", "LINE_DIR3": 0, "LINE_DIR4": 0, "LINE_DIR5": 0, "LINE_DIR6": 0, "LINE_DIR7": 0, "LINE_DIR8": 0, "LINE_DIR9": 0, "LINE_DIR10": 0, "LINE_DIR11": 0, "LINE_DIR12": 0, "LINE_DIR13": 0, "LINE_DIR14": 0, "layer_id": "bus_stops", "feature_name": "Bus Stop" }, "geometry": { "type": "Point", "coordinates": [ -118.26308, 34.044218 ] } },
{ "type": "Feature", "properties": { "STOPNUM": 4686, "STOPNAME": "Hill / 7th", "LAT": 34.046543, "LONG": -118.253741, "LINE_DIR1": "81-N", "LINE_DIR2": null, "LINE_DIR3": 0, "LINE_DIR4": 0, "LINE_DIR5": 0, "LINE_DIR6": 0, "LINE_DIR7": 0, "LINE_DIR8": 0, "LINE_DIR9": 0, "LINE_DIR10": 0, "LINE_DIR11": 0, "LINE_DIR12": 0, "LINE_DIR13": 0, "LINE_DIR14": 0, "layer_id": "bus_stops", "feature_name": "Bus Stop" }, "geometry": { "type": "Point", "coordinates": [ -118.253741, 34.046543 ] } },
{ "type": "Feature", "properties": { "STOPNUM": 4703, "STOPNAME": "Venice / Toberman", "LAT": 34.041393, "LONG": -118.279022, "LINE_DIR1": "33-E", "LINE_DIR2": null, "LINE_DIR3": 0, "LINE_DIR4": 0, "LINE_DIR5": 0, "LINE_DIR6": 0, "LINE_DIR7": 0, "LINE_DIR8": 0, "LINE_DIR9": 0, "LINE_DIR10": 0, "LINE_DIR11": 0, "LINE_DIR12": 0, "LINE_DIR13": 0, "LINE_DIR14": 0, "layer_id": "bus_stops", "feature_name": "Bus Stop" }, "geometry": { "type": "Point", "coordinates": [ -118.279022, 34.041393 ] } },
{ "type": "Feature", "properties": { "STOPNUM": 4719, "STOPNAME": "Temple / Alvarado", "LAT": 34.070101, "LONG": -118.267932, "LINE_DIR1": "10-E", "LINE_DIR2": null, "LINE_DIR3": 0, "LINE_DIR4": 0, "LINE_DIR5": 0, "LINE_DIR6": 0, "LINE_DIR7": 0, "LINE_DIR8": 0, "LINE_DIR9": 0, "LINE_DIR10": 0, "LINE_DIR11": 0, "LINE_DIR12": 0, "LINE_DIR13": 0, "LINE_DIR14": 0, "layer_id": "bus_stops", "feature_name": "Bus Stop" }, "geometry": { "type": "Point", "coordinates": [ -118.267932, 34.070101 ] } },
{ "type": "Feature", "properties": { "STOPNUM": 4723, "STOPNAME": "Temple / Bonnie Brae", "LAT": 34.069609, "LONG": -118.265598, "LINE_DIR1": "10-W", "LINE_DIR2": null, "LINE_DIR3": 0, "LINE_DIR4": 0, "LINE_DIR5": 0, "LINE_DIR6": 0, "LINE_DIR7": 0, "LINE_DIR8": 0, "LINE_DIR9": 0, "LINE_DIR10": 0, "LINE_DIR11": 0, "LINE_DIR12": 0, "LINE_DIR13": 0, "LINE_DIR14": 0, "layer_id": "bus_stops", "feature_name": "Bus Stop" }, "geometry": { "type": "Point", "coordinates": [ -118.265598, 34.069609 ] } },
{ "type": "Feature", "properties": { "STOPNUM": 4724, "STOPNAME": "Temple / Park View", "LAT": 34.071772, "LONG": -118.272113, "LINE_DIR1": "10-W", "LINE_DIR2": null, "LINE_DIR3": 0, "LINE_DIR4": 0, "LINE_DIR5": 0, "LINE_DIR6": 0, "LINE_DIR7": 0, "LINE_DIR8": 0, "LINE_DIR9": 0, "LINE_DIR10": 0, "LINE_DIR11": 0, "LINE_DIR12": 0, "LINE_DIR13": 0, "LINE_DIR14": 0, "layer_id": "bus_stops", "feature_name": "Bus Stop" }, "geometry": { "type": "Point", "coordinates": [ -118.272113, 34.071772 ] } },
{ "type": "Feature", "properties": { "STOPNUM": 4735, "STOPNAME": "Bixel / Maryland", "LAT": 34.055931, "LONG": -118.260892, "LINE_DIR1": "16-E", "LINE_DIR2": null, "LINE_DIR3": 0, "LINE_DIR4": 0, "LINE_DIR5": 0, "LINE_DIR6": 0, "LINE_DIR7": 0, "LINE_DIR8": 0, "LINE_DIR9": 0, "LINE_DIR10": 0, "LINE_DIR11": 0, "LINE_DIR12": 0, "LINE_DIR13": 0, "LINE_DIR14": 0, "layer_id": "bus_stops", "feature_name": "Bus Stop" }, "geometry": { "type": "Point", "coordinates": [ -118.260892, 34.055931 ] } },
{ "type": "Feature", "properties": { "STOPNUM": 4756, "STOPNAME": "Broadway / Venice", "LAT": 34.033969, "LONG": -118.263539, "LINE_DIR1": "4-W", "LINE_DIR2": "45-N", "LINE_DIR3": 0, "LINE_DIR4": 0, "LINE_DIR5": 0, "LINE_DIR6": 0, "LINE_DIR7": 0, "LINE_DIR8": 0, "LINE_DIR9": 0, "LINE_DIR10": 0, "LINE_DIR11": 0, "LINE_DIR12": 0, "LINE_DIR13": 0, "LINE_DIR14": 0, "layer_id": "bus_stops", "feature_name": "Bus Stop" }, "geometry": { "type": "Point", "coordinates": [ -118.263539, 34.033969 ] } },
{ "type": "Feature", "properties": { "STOPNUM": 4766, "STOPNAME": "Broadway / 12th", "LAT": 34.038258, "LONG": -118.259991, "LINE_DIR1": "30-E", "LINE_DIR2": "45-N", "LINE_DIR3": 0, "LINE_DIR4": 0, "LINE_DIR5": 0, "LINE_DIR6": 0, "LINE_DIR7": 0, "LINE_DIR8": 0, "LINE_DIR9": 0, "LINE_DIR10": 0, "LINE_DIR11": 0, "LINE_DIR12": 0, "LINE_DIR13": 0, "LINE_DIR14": 0, "layer_id": "bus_stops", "feature_name": "Bus Stop" }, "geometry": { "type": "Point", "coordinates": [ -118.259991, 34.038258 ] } },
{ "type": "Feature", "properties": { "STOPNUM": 4767, "STOPNAME": "Broadway / 1st", "LAT": 34.053969, "LONG": -118.244999, "LINE_DIR1": "4-W", "LINE_DIR2": "45-N", "LINE_DIR3": 0, "LINE_DIR4": 0, "LINE_DIR5": 0, "LINE_DIR6": 0, "LINE_DIR7": 0, "LINE_DIR8": 0, "LINE_DIR9": 0, "LINE_DIR10": 0, "LINE_DIR11": 0, "LINE_DIR12": 0, "LINE_DIR13": 0, "LINE_DIR14": 0, "layer_id": "bus_stops", "feature_name": "Bus Stop" }, "geometry": { "type": "Point", "coordinates": [ -118.244999, 34.053969 ] } },
{ "type": "Feature", "properties": { "STOPNUM": 4768, "STOPNAME": "Broadway / 21st", "LAT": 34.029233, "LONG": -118.267046, "LINE_DIR1": "40-N", "LINE_DIR2": "45-N", "LINE_DIR3": 0, "LINE_DIR4": 0, "LINE_DIR5": 0, "LINE_DIR6": 0, "LINE_DIR7": 0, "LINE_DIR8": 0, "LINE_DIR9": 0, "LINE_DIR10": 0, "LINE_DIR11": 0, "LINE_DIR12": 0, "LINE_DIR13": 0, "LINE_DIR14": 0, "layer_id": "bus_stops", "feature_name": "Bus Stop" }, "geometry": { "type": "Point", "coordinates": [ -118.267046, 34.029233 ] } },
{ "type": "Feature", "properties": { "STOPNUM": 4771, "STOPNAME": "Hill / 3rd", "LAT": 34.051807, "LONG": -118.248822, "LINE_DIR1": "10-W", "LINE_DIR2": "94-N", "LINE_DIR3": 0, "LINE_DIR4": 0, "LINE_DIR5": 0, "LINE_DIR6": 0, "LINE_DIR7": 0, "LINE_DIR8": 0, "LINE_DIR9": 0, "LINE_DIR10": 0, "LINE_DIR11": 0, "LINE_DIR12": 0, "LINE_DIR13": 0, "LINE_DIR14": 0, "layer_id": "bus_stops", "feature_name": "Bus Stop" }, "geometry": { "type": "Point", "coordinates": [ -118.248822, 34.051807 ] } },
{ "type": "Feature", "properties": { "STOPNUM": 4772, "STOPNAME": "Broadway / 30th", "LAT": 34.022375, "LONG": -118.271509, "LINE_DIR1": "40-N", "LINE_DIR2": "45-N", "LINE_DIR3": 0, "LINE_DIR4": 0, "LINE_DIR5": 0, "LINE_DIR6": 0, "LINE_DIR7": 0, "LINE_DIR8": 0, "LINE_DIR9": 0, "LINE_DIR10": 0, "LINE_DIR11": 0, "LINE_DIR12": 0, "LINE_DIR13": 0, "LINE_DIR14": 0, "layer_id": "bus_stops", "feature_name": "Bus Stop" }, "geometry": { "type": "Point", "coordinates": [ -118.271509, 34.022375 ] } },
{ "type": "Feature", "properties": { "STOPNUM": 4787, "STOPNAME": "Broadway / 5th", "LAT": 34.048187, "LONG": -118.250466, "LINE_DIR1": "45-N", "LINE_DIR2": "4-W", "LINE_DIR3": 0, "LINE_DIR4": 0, "LINE_DIR5": 0, "LINE_DIR6": 0, "LINE_DIR7": 0, "LINE_DIR8": 0, "LINE_DIR9": 0, "LINE_DIR10": 0, "LINE_DIR11": 0, "LINE_DIR12": 0, "LINE_DIR13": 0, "LINE_DIR14": 0, "layer_id": "bus_stops", "feature_name": "Bus Stop" }, "geometry": { "type": "Point", "coordinates": [ -118.250466, 34.048187 ] } },
{ "type": "Feature", "properties": { "STOPNUM": 4799, "STOPNAME": "Broadway / 7th", "LAT": 34.044985, "LONG": -118.25342, "LINE_DIR1": "30-E", "LINE_DIR2": "40-S", "LINE_DIR3": 0, "LINE_DIR4": 0, "LINE_DIR5": 0, "LINE_DIR6": 0, "LINE_DIR7": 0, "LINE_DIR8": 0, "LINE_DIR9": 0, "LINE_DIR10": 0, "LINE_DIR11": 0, "LINE_DIR12": 0, "LINE_DIR13": 0, "LINE_DIR14": 0, "layer_id": "bus_stops", "feature_name": "Bus Stop" }, "geometry": { "type": "Point", "coordinates": [ -118.25342, 34.044985 ] } },
{ "type": "Feature", "properties": { "STOPNUM": 4810, "STOPNAME": "Broadway / Adams", "LAT": 34.025163, "LONG": -118.269696, "LINE_DIR1": "40-N", "LINE_DIR2": "45-N", "LINE_DIR3": 0, "LINE_DIR4": 0, "LINE_DIR5": 0, "LINE_DIR6": 0, "LINE_DIR7": 0, "LINE_DIR8": 0, "LINE_DIR9": 0, "LINE_DIR10": 0, "LINE_DIR11": 0, "LINE_DIR12": 0, "LINE_DIR13": 0, "LINE_DIR14": 0, "layer_id": "bus_stops", "feature_name": "Bus Stop" }, "geometry": { "type": "Point", "coordinates": [ -118.269696, 34.025163 ] } },
{ "type": "Feature", "properties": { "STOPNUM": 4818, "STOPNAME": "Broadway / Olympic", "LAT": 34.041494, "LONG": -118.256654, "LINE_DIR1": "4-W", "LINE_DIR2": "45-N", "LINE_DIR3": 0, "LINE_DIR4": 0, "LINE_DIR5": 0, "LINE_DIR6": 0, "LINE_DIR7": 0, "LINE_DIR8": 0, "LINE_DIR9": 0, "LINE_DIR10": 0, "LINE_DIR11": 0, "LINE_DIR12": 0, "LINE_DIR13": 0, "LINE_DIR14": 0, "layer_id": "bus_stops", "feature_name": "Bus Stop" }, "geometry": { "type": "Point", "coordinates": [ -118.256654, 34.041494 ] } },
{ "type": "Feature", "properties": { "STOPNUM": 4819, "STOPNAME": "Broadway / Pico", "LAT": 34.036907, "LONG": -118.261152, "LINE_DIR1": "40-N", "LINE_DIR2": "35-S", "LINE_DIR3": 0, "LINE_DIR4": 0, "LINE_DIR5": 0, "LINE_DIR6": 0, "LINE_DIR7": 0, "LINE_DIR8": 0, "LINE_DIR9": 0, "LINE_DIR10": 0, "LINE_DIR11": 0, "LINE_DIR12": 0, "LINE_DIR13": 0, "LINE_DIR14": 0, "layer_id": "bus_stops", "feature_name": "Bus Stop" }, "geometry": { "type": "Point", "coordinates": [ -118.261152, 34.036907 ] } },
{ "type": "Feature", "properties": { "STOPNUM": 4822, "STOPNAME": "Broadway / Washington", "LAT": 34.031943, "LONG": -118.265206, "LINE_DIR1": "35-S", "LINE_DIR2": null, "LINE_DIR3": 0, "LINE_DIR4": 0, "LINE_DIR5": 0, "LINE_DIR6": 0, "LINE_DIR7": 0, "LINE_DIR8": 0, "LINE_DIR9": 0, "LINE_DIR10": 0, "LINE_DIR11": 0, "LINE_DIR12": 0, "LINE_DIR13": 0, "LINE_DIR14": 0, "layer_id": "bus_stops", "feature_name": "Bus Stop" }, "geometry": { "type": "Point", "coordinates": [ -118.265206, 34.031943 ] } },
{ "type": "Feature", "properties": { "STOPNUM": 4848, "STOPNAME": "Central / 12th", "LAT": 34.030381, "LONG": -118.24494, "LINE_DIR1": "53-N", "LINE_DIR2": null, "LINE_DIR3": 0, "LINE_DIR4": 0, "LINE_DIR5": 0, "LINE_DIR6": 0, "LINE_DIR7": 0, "LINE_DIR8": 0, "LINE_DIR9": 0, "LINE_DIR10": 0, "LINE_DIR11": 0, "LINE_DIR12": 0, "LINE_DIR13": 0, "LINE_DIR14": 0, "layer_id": "bus_stops", "feature_name": "Bus Stop" }, "geometry": { "type": "Point", "coordinates": [ -118.24494, 34.030381 ] } },
{ "type": "Feature", "properties": { "STOPNUM": 4849, "STOPNAME": "Central / 14th", "LAT": 34.028226, "LONG": -118.246835, "LINE_DIR1": "53-N", "LINE_DIR2": null, "LINE_DIR3": 0, "LINE_DIR4": 0, "LINE_DIR5": 0, "LINE_DIR6": 0, "LINE_DIR7": 0, "LINE_DIR8": 0, "LINE_DIR9": 0, "LINE_DIR10": 0, "LINE_DIR11": 0, "LINE_DIR12": 0, "LINE_DIR13": 0, "LINE_DIR14": 0, "layer_id": "bus_stops", "feature_name": "Bus Stop" }, "geometry": { "type": "Point", "coordinates": [ -118.246835, 34.028226 ] } },
{ "type": "Feature", "properties": { "STOPNUM": 4850, "STOPNAME": "Central / 16th", "LAT": 34.026197, "LONG": -118.248783, "LINE_DIR1": "53-N", "LINE_DIR2": null, "LINE_DIR3": 0, "LINE_DIR4": 0, "LINE_DIR5": 0, "LINE_DIR6": 0, "LINE_DIR7": 0, "LINE_DIR8": 0, "LINE_DIR9": 0, "LINE_DIR10": 0, "LINE_DIR11": 0, "LINE_DIR12": 0, "LINE_DIR13": 0, "LINE_DIR14": 0, "layer_id": "bus_stops", "feature_name": "Bus Stop" }, "geometry": { "type": "Point", "coordinates": [ -118.248783, 34.026197 ] } },
{ "type": "Feature", "properties": { "STOPNUM": 4851, "STOPNAME": "Central / 22nd", "LAT": 34.02139, "LONG": -118.253151, "LINE_DIR1": "53-N", "LINE_DIR2": null, "LINE_DIR3": 0, "LINE_DIR4": 0, "LINE_DIR5": 0, "LINE_DIR6": 0, "LINE_DIR7": 0, "LINE_DIR8": 0, "LINE_DIR9": 0, "LINE_DIR10": 0, "LINE_DIR11": 0, "LINE_DIR12": 0, "LINE_DIR13": 0, "LINE_DIR14": 0, "layer_id": "bus_stops", "feature_name": "Bus Stop" }, "geometry": { "type": "Point", "coordinates": [ -118.253151, 34.02139 ] } },
{ "type": "Feature", "properties": { "STOPNUM": 4861, "STOPNAME": "5th / Central", "LAT": 34.042001, "LONG": -118.240125, "LINE_DIR1": "18-W", "LINE_DIR2": "62-N", "LINE_DIR3": 0, "LINE_DIR4": 0, "LINE_DIR5": 0, "LINE_DIR6": 0, "LINE_DIR7": 0, "LINE_DIR8": 0, "LINE_DIR9": 0, "LINE_DIR10": 0, "LINE_DIR11": 0, "LINE_DIR12": 0, "LINE_DIR13": 0, "LINE_DIR14": 0, "layer_id": "bus_stops", "feature_name": "Bus Stop" }, "geometry": { "type": "Point", "coordinates": [ -118.240125, 34.042001 ] } },
{ "type": "Feature", "properties": { "STOPNUM": 4867, "STOPNAME": "Central / 7th", "LAT": 34.036547, "LONG": -118.241166, "LINE_DIR1": "53-N", "LINE_DIR2": null, "LINE_DIR3": 0, "LINE_DIR4": 0, "LINE_DIR5": 0, "LINE_DIR6": 0, "LINE_DIR7": 0, "LINE_DIR8": 0, "LINE_DIR9": 0, "LINE_DIR10": 0, "LINE_DIR11": 0, "LINE_DIR12": 0, "LINE_DIR13": 0, "LINE_DIR14": 0, "layer_id": "bus_stops", "feature_name": "Bus Stop" }, "geometry": { "type": "Point", "coordinates": [ -118.241166, 34.036547 ] } },
{ "type": "Feature", "properties": { "STOPNUM": 4874, "STOPNAME": "Central / 8th", "LAT": 34.033336, "LONG": -118.243252, "LINE_DIR1": "53-N", "LINE_DIR2": null, "LINE_DIR3": 0, "LINE_DIR4": 0, "LINE_DIR5": 0, "LINE_DIR6": 0, "LINE_DIR7": 0, "LINE_DIR8": 0, "LINE_DIR9": 0, "LINE_DIR10": 0, "LINE_DIR11": 0, "LINE_DIR12": 0, "LINE_DIR13": 0, "LINE_DIR14": 0, "layer_id": "bus_stops", "feature_name": "Bus Stop" }, "geometry": { "type": "Point", "coordinates": [ -118.243252, 34.033336 ] } },
{ "type": "Feature", "properties": { "STOPNUM": 4886, "STOPNAME": "Central / Olympic", "LAT": 34.032258, "LONG": -118.243823, "LINE_DIR1": "53-N", "LINE_DIR2": null, "LINE_DIR3": 0, "LINE_DIR4": 0, "LINE_DIR5": 0, "LINE_DIR6": 0, "LINE_DIR7": 0, "LINE_DIR8": 0, "LINE_DIR9": 0, "LINE_DIR10": 0, "LINE_DIR11": 0, "LINE_DIR12": 0, "LINE_DIR13": 0, "LINE_DIR14": 0, "layer_id": "bus_stops", "feature_name": "Bus Stop" }, "geometry": { "type": "Point", "coordinates": [ -118.243823, 34.032258 ] } },
{ "type": "Feature", "properties": { "STOPNUM": 4898, "STOPNAME": "Grand / 1st", "LAT": 34.055777, "LONG": -118.248533, "LINE_DIR1": "60-N", "LINE_DIR2": null, "LINE_DIR3": 0, "LINE_DIR4": 0, "LINE_DIR5": 0, "LINE_DIR6": 0, "LINE_DIR7": 0, "LINE_DIR8": 0, "LINE_DIR9": 0, "LINE_DIR10": 0, "LINE_DIR11": 0, "LINE_DIR12": 0, "LINE_DIR13": 0, "LINE_DIR14": 0, "layer_id": "bus_stops", "feature_name": "Bus Stop" }, "geometry": { "type": "Point", "coordinates": [ -118.248533, 34.055777 ] } },
{ "type": "Feature", "properties": { "STOPNUM": 4991, "STOPNAME": "Figueroa / 12th", "LAT": 34.042022, "LONG": -118.266592, "LINE_DIR1": "81-N", "LINE_DIR2": null, "LINE_DIR3": 0, "LINE_DIR4": 0, "LINE_DIR5": 0, "LINE_DIR6": 0, "LINE_DIR7": 0, "LINE_DIR8": 0, "LINE_DIR9": 0, "LINE_DIR10": 0, "LINE_DIR11": 0, "LINE_DIR12": 0, "LINE_DIR13": 0, "LINE_DIR14": 0, "layer_id": "bus_stops", "feature_name": "Bus Stop" }, "geometry": { "type": "Point", "coordinates": [ -118.266592, 34.042022 ] } },
{ "type": "Feature", "properties": { "STOPNUM": 4992, "STOPNAME": "Figueroa / 4th", "LAT": 34.053959, "LONG": -118.255369, "LINE_DIR1": "55-N", "LINE_DIR2": null, "LINE_DIR3": 0, "LINE_DIR4": 0, "LINE_DIR5": 0, "LINE_DIR6": 0, "LINE_DIR7": 0, "LINE_DIR8": 0, "LINE_DIR9": 0, "LINE_DIR10": 0, "LINE_DIR11": 0, "LINE_DIR12": 0, "LINE_DIR13": 0, "LINE_DIR14": 0, "layer_id": "bus_stops", "feature_name": "Bus Stop" }, "geometry": { "type": "Point", "coordinates": [ -118.255369, 34.053959 ] } },
{ "type": "Feature", "properties": { "STOPNUM": 4994, "STOPNAME": "Figueroa / 23rd", "LAT": 34.030962, "LONG": -118.274042, "LINE_DIR1": "81-N", "LINE_DIR2": "910-N", "LINE_DIR3": 0, "LINE_DIR4": 0, "LINE_DIR5": 0, "LINE_DIR6": 0, "LINE_DIR7": 0, "LINE_DIR8": 0, "LINE_DIR9": 0, "LINE_DIR10": 0, "LINE_DIR11": 0, "LINE_DIR12": 0, "LINE_DIR13": 0, "LINE_DIR14": 0, "layer_id": "bus_stops", "feature_name": "Bus Stop" }, "geometry": { "type": "Point", "coordinates": [ -118.274042, 34.030962 ] } },
{ "type": "Feature", "properties": { "STOPNUM": 4998, "STOPNAME": "Figueroa / 3rd", "LAT": 34.055244, "LONG": -118.254151, "LINE_DIR1": "55-N", "LINE_DIR2": null, "LINE_DIR3": 0, "LINE_DIR4": 0, "LINE_DIR5": 0, "LINE_DIR6": 0, "LINE_DIR7": 0, "LINE_DIR8": 0, "LINE_DIR9": 0, "LINE_DIR10": 0, "LINE_DIR11": 0, "LINE_DIR12": 0, "LINE_DIR13": 0, "LINE_DIR14": 0, "layer_id": "bus_stops", "feature_name": "Bus Stop" }, "geometry": { "type": "Point", "coordinates": [ -118.254151, 34.055244 ] } },
{ "type": "Feature", "properties": { "STOPNUM": 5017, "STOPNAME": "7th / Figueroa", "LAT": 34.049409, "LONG": -118.260125, "LINE_DIR1": "51-S", "LINE_DIR2": null, "LINE_DIR3": 0, "LINE_DIR4": 0, "LINE_DIR5": 0, "LINE_DIR6": 0, "LINE_DIR7": 0, "LINE_DIR8": 0, "LINE_DIR9": 0, "LINE_DIR10": 0, "LINE_DIR11": 0, "LINE_DIR12": 0, "LINE_DIR13": 0, "LINE_DIR14": 0, "layer_id": "bus_stops", "feature_name": "Bus Stop" }, "geometry": { "type": "Point", "coordinates": [ -118.260125, 34.049409 ] } },
{ "type": "Feature", "properties": { "STOPNUM": 5019, "STOPNAME": "Figueroa / 7th", "LAT": 34.049159, "LONG": -118.25989, "LINE_DIR1": "460-W", "LINE_DIR2": null, "LINE_DIR3": 0, "LINE_DIR4": 0, "LINE_DIR5": 0, "LINE_DIR6": 0, "LINE_DIR7": 0, "LINE_DIR8": 0, "LINE_DIR9": 0, "LINE_DIR10": 0, "LINE_DIR11": 0, "LINE_DIR12": 0, "LINE_DIR13": 0, "LINE_DIR14": 0, "layer_id": "bus_stops", "feature_name": "Bus Stop" }, "geometry": { "type": "Point", "coordinates": [ -118.25989, 34.049159 ] } },
{ "type": "Feature", "properties": { "STOPNUM": 5030, "STOPNAME": "Figueroa / Adams", "LAT": 34.027929, "LONG": -118.275973, "LINE_DIR1": "81-N", "LINE_DIR2": null, "LINE_DIR3": 0, "LINE_DIR4": 0, "LINE_DIR5": 0, "LINE_DIR6": 0, "LINE_DIR7": 0, "LINE_DIR8": 0, "LINE_DIR9": 0, "LINE_DIR10": 0, "LINE_DIR11": 0, "LINE_DIR12": 0, "LINE_DIR13": 0, "LINE_DIR14": 0, "layer_id": "bus_stops", "feature_name": "Bus Stop" }, "geometry": { "type": "Point", "coordinates": [ -118.275973, 34.027929 ] } },
{ "type": "Feature", "properties": { "STOPNUM": 5040, "STOPNAME": "Figueroa / Olympic", "LAT": 34.045131, "LONG": -118.263651, "LINE_DIR1": "81-N", "LINE_DIR2": "910-N", "LINE_DIR3": 0, "LINE_DIR4": 0, "LINE_DIR5": 0, "LINE_DIR6": 0, "LINE_DIR7": 0, "LINE_DIR8": 0, "LINE_DIR9": 0, "LINE_DIR10": 0, "LINE_DIR11": 0, "LINE_DIR12": 0, "LINE_DIR13": 0, "LINE_DIR14": 0, "layer_id": "bus_stops", "feature_name": "Bus Stop" }, "geometry": { "type": "Point", "coordinates": [ -118.263651, 34.045131 ] } },
{ "type": "Feature", "properties": { "STOPNUM": 5041, "STOPNAME": "Figueroa / Pico", "LAT": 34.040803, "LONG": -118.267717, "LINE_DIR1": "81-N", "LINE_DIR2": "910-N", "LINE_DIR3": 0, "LINE_DIR4": 0, "LINE_DIR5": 0, "LINE_DIR6": 0, "LINE_DIR7": 0, "LINE_DIR8": 0, "LINE_DIR9": 0, "LINE_DIR10": 0, "LINE_DIR11": 0, "LINE_DIR12": 0, "LINE_DIR13": 0, "LINE_DIR14": 0, "layer_id": "bus_stops", "feature_name": "Bus Stop" }, "geometry": { "type": "Point", "coordinates": [ -118.267717, 34.040803 ] } },
{ "type": "Feature", "properties": { "STOPNUM": 5049, "STOPNAME": "Figueroa / Washington", "LAT": 34.034572, "LONG": -118.27174, "LINE_DIR1": "81-N", "LINE_DIR2": "910-N", "LINE_DIR3": 0, "LINE_DIR4": 0, "LINE_DIR5": 0, "LINE_DIR6": 0, "LINE_DIR7": 0, "LINE_DIR8": 0, "LINE_DIR9": 0, "LINE_DIR10": 0, "LINE_DIR11": 0, "LINE_DIR12": 0, "LINE_DIR13": 0, "LINE_DIR14": 0, "layer_id": "bus_stops", "feature_name": "Bus Stop" }, "geometry": { "type": "Point", "coordinates": [ -118.27174, 34.034572 ] } },
{ "type": "Feature", "properties": { "STOPNUM": 5050, "STOPNAME": "Figueroa / Wilshire", "LAT": 34.050208, "LONG": -118.258906, "LINE_DIR1": "460-W", "LINE_DIR2": null, "LINE_DIR3": 0, "LINE_DIR4": 0, "LINE_DIR5": 0, "LINE_DIR6": 0, "LINE_DIR7": 0, "LINE_DIR8": 0, "LINE_DIR9": 0, "LINE_DIR10": 0, "LINE_DIR11": 0, "LINE_DIR12": 0, "LINE_DIR13": 0, "LINE_DIR14": 0, "layer_id": "bus_stops", "feature_name": "Bus Stop" }, "geometry": { "type": "Point", "coordinates": [ -118.258906, 34.050208 ] } },
{ "type": "Feature", "properties": { "STOPNUM": 5104, "STOPNAME": "Venice / Olive", "LAT": 34.035207, "LONG": -118.26559, "LINE_DIR1": "33-E", "LINE_DIR2": null, "LINE_DIR3": 0, "LINE_DIR4": 0, "LINE_DIR5": 0, "LINE_DIR6": 0, "LINE_DIR7": 0, "LINE_DIR8": 0, "LINE_DIR9": 0, "LINE_DIR10": 0, "LINE_DIR11": 0, "LINE_DIR12": 0, "LINE_DIR13": 0, "LINE_DIR14": 0, "layer_id": "bus_stops", "feature_name": "Bus Stop" }, "geometry": { "type": "Point", "coordinates": [ -118.26559, 34.035207 ] } },
{ "type": "Feature", "properties": { "STOPNUM": 5107, "STOPNAME": "23rd / Grand", "LAT": 34.029274, "LONG": -118.270766, "LINE_DIR1": "93-N", "LINE_DIR2": null, "LINE_DIR3": 0, "LINE_DIR4": 0, "LINE_DIR5": 0, "LINE_DIR6": 0, "LINE_DIR7": 0, "LINE_DIR8": 0, "LINE_DIR9": 0, "LINE_DIR10": 0, "LINE_DIR11": 0, "LINE_DIR12": 0, "LINE_DIR13": 0, "LINE_DIR14": 0, "layer_id": "bus_stops", "feature_name": "Bus Stop" }, "geometry": { "type": "Point", "coordinates": [ -118.270766, 34.029274 ] } },
{ "type": "Feature", "properties": { "STOPNUM": 5108, "STOPNAME": "Grand / 30th", "LAT": 34.023191, "LONG": -118.274191, "LINE_DIR1": "35-N", "LINE_DIR2": null, "LINE_DIR3": 0, "LINE_DIR4": 0, "LINE_DIR5": 0, "LINE_DIR6": 0, "LINE_DIR7": 0, "LINE_DIR8": 0, "LINE_DIR9": 0, "LINE_DIR10": 0, "LINE_DIR11": 0, "LINE_DIR12": 0, "LINE_DIR13": 0, "LINE_DIR14": 0, "layer_id": "bus_stops", "feature_name": "Bus Stop" }, "geometry": { "type": "Point", "coordinates": [ -118.274191, 34.023191 ] } },
{ "type": "Feature", "properties": { "STOPNUM": 5110, "STOPNAME": "Grand / Jefferson", "LAT": 34.020455, "LONG": -118.275948, "LINE_DIR1": "35-N", "LINE_DIR2": null, "LINE_DIR3": 0, "LINE_DIR4": 0, "LINE_DIR5": 0, "LINE_DIR6": 0, "LINE_DIR7": 0, "LINE_DIR8": 0, "LINE_DIR9": 0, "LINE_DIR10": 0, "LINE_DIR11": 0, "LINE_DIR12": 0, "LINE_DIR13": 0, "LINE_DIR14": 0, "layer_id": "bus_stops", "feature_name": "Bus Stop" }, "geometry": { "type": "Point", "coordinates": [ -118.275948, 34.020455 ] } },
{ "type": "Feature", "properties": { "STOPNUM": 5113, "STOPNAME": "Grand / Washington", "LAT": 34.03245, "LONG": -118.268281, "LINE_DIR1": "35-N", "LINE_DIR2": "93-S", "LINE_DIR3": 0, "LINE_DIR4": 0, "LINE_DIR5": 0, "LINE_DIR6": 0, "LINE_DIR7": 0, "LINE_DIR8": 0, "LINE_DIR9": 0, "LINE_DIR10": 0, "LINE_DIR11": 0, "LINE_DIR12": 0, "LINE_DIR13": 0, "LINE_DIR14": 0, "layer_id": "bus_stops", "feature_name": "Bus Stop" }, "geometry": { "type": "Point", "coordinates": [ -118.268281, 34.03245 ] } },
{ "type": "Feature", "properties": { "STOPNUM": 5126, "STOPNAME": "Venice / Hill", "LAT": 34.034885, "LONG": -118.264592, "LINE_DIR1": "33-W", "LINE_DIR2": null, "LINE_DIR3": 0, "LINE_DIR4": 0, "LINE_DIR5": 0, "LINE_DIR6": 0, "LINE_DIR7": 0, "LINE_DIR8": 0, "LINE_DIR9": 0, "LINE_DIR10": 0, "LINE_DIR11": 0, "LINE_DIR12": 0, "LINE_DIR13": 0, "LINE_DIR14": 0, "layer_id": "bus_stops", "feature_name": "Bus Stop" }, "geometry": { "type": "Point", "coordinates": [ -118.264592, 34.034885 ] } },
{ "type": "Feature", "properties": { "STOPNUM": 5128, "STOPNAME": "Hill / Venice", "LAT": 34.034897, "LONG": -118.264236, "LINE_DIR1": "94-N", "LINE_DIR2": null, "LINE_DIR3": 0, "LINE_DIR4": 0, "LINE_DIR5": 0, "LINE_DIR6": 0, "LINE_DIR7": 0, "LINE_DIR8": 0, "LINE_DIR9": 0, "LINE_DIR10": 0, "LINE_DIR11": 0, "LINE_DIR12": 0, "LINE_DIR13": 0, "LINE_DIR14": 0, "layer_id": "bus_stops", "feature_name": "Bus Stop" }, "geometry": { "type": "Point", "coordinates": [ -118.264236, 34.034897 ] } },
{ "type": "Feature", "properties": { "STOPNUM": 5129, "STOPNAME": "Venice / Broadway", "LAT": 34.034202, "LONG": -118.263814, "LINE_DIR1": "4-E", "LINE_DIR2": "33-E", "LINE_DIR3": 0, "LINE_DIR4": 0, "LINE_DIR5": 0, "LINE_DIR6": 0, "LINE_DIR7": 0, "LINE_DIR8": 0, "LINE_DIR9": 0, "LINE_DIR10": 0, "LINE_DIR11": 0, "LINE_DIR12": 0, "LINE_DIR13": 0, "LINE_DIR14": 0, "layer_id": "bus_stops", "feature_name": "Bus Stop" }, "geometry": { "type": "Point", "coordinates": [ -118.263814, 34.034202 ] } },
{ "type": "Feature", "properties": { "STOPNUM": 5130, "STOPNAME": "Hill / 11th", "LAT": 34.040009, "LONG": -118.260103, "LINE_DIR1": "4-E", "LINE_DIR2": "94-S", "LINE_DIR3": 0, "LINE_DIR4": 0, "LINE_DIR5": 0, "LINE_DIR6": 0, "LINE_DIR7": 0, "LINE_DIR8": 0, "LINE_DIR9": 0, "LINE_DIR10": 0, "LINE_DIR11": 0, "LINE_DIR12": 0, "LINE_DIR13": 0, "LINE_DIR14": 0, "layer_id": "bus_stops", "feature_name": "Bus Stop" }, "geometry": { "type": "Point", "coordinates": [ -118.260103, 34.040009 ] } },
{ "type": "Feature", "properties": { "STOPNUM": 5131, "STOPNAME": "Hill / 12th", "LAT": 34.038585, "LONG": -118.261418, "LINE_DIR1": "94-S", "LINE_DIR2": "4-E", "LINE_DIR3": 0, "LINE_DIR4": 0, "LINE_DIR5": 0, "LINE_DIR6": 0, "LINE_DIR7": 0, "LINE_DIR8": 0, "LINE_DIR9": 0, "LINE_DIR10": 0, "LINE_DIR11": 0, "LINE_DIR12": 0, "LINE_DIR13": 0, "LINE_DIR14": 0, "layer_id": "bus_stops", "feature_name": "Bus Stop" }, "geometry": { "type": "Point", "coordinates": [ -118.261418, 34.038585 ] } },
{ "type": "Feature", "properties": { "STOPNUM": 5132, "STOPNAME": "Hill / 14th", "LAT": 34.036264, "LONG": -118.263425, "LINE_DIR1": "4-E", "LINE_DIR2": "94-S", "LINE_DIR3": 0, "LINE_DIR4": 0, "LINE_DIR5": 0, "LINE_DIR6": 0, "LINE_DIR7": 0, "LINE_DIR8": 0, "LINE_DIR9": 0, "LINE_DIR10": 0, "LINE_DIR11": 0, "LINE_DIR12": 0, "LINE_DIR13": 0, "LINE_DIR14": 0, "layer_id": "bus_stops", "feature_name": "Bus Stop" }, "geometry": { "type": "Point", "coordinates": [ -118.263425, 34.036264 ] } },
{ "type": "Feature", "properties": { "STOPNUM": 5133, "STOPNAME": "Hill / 1st", "LAT": 34.053811, "LONG": -118.247234, "LINE_DIR1": "4-E", "LINE_DIR2": "94-S", "LINE_DIR3": 0, "LINE_DIR4": 0, "LINE_DIR5": 0, "LINE_DIR6": 0, "LINE_DIR7": 0, "LINE_DIR8": 0, "LINE_DIR9": 0, "LINE_DIR10": 0, "LINE_DIR11": 0, "LINE_DIR12": 0, "LINE_DIR13": 0, "LINE_DIR14": 0, "layer_id": "bus_stops", "feature_name": "Bus Stop" }, "geometry": { "type": "Point", "coordinates": [ -118.247234, 34.053811 ] } },
{ "type": "Feature", "properties": { "STOPNUM": 5135, "STOPNAME": "Hill / 3rd", "LAT": 34.051495, "LONG": -118.249416, "LINE_DIR1": "81-S", "LINE_DIR2": "10-E", "LINE_DIR3": 0, "LINE_DIR4": 0, "LINE_DIR5": 0, "LINE_DIR6": 0, "LINE_DIR7": 0, "LINE_DIR8": 0, "LINE_DIR9": 0, "LINE_DIR10": 0, "LINE_DIR11": 0, "LINE_DIR12": 0, "LINE_DIR13": 0, "LINE_DIR14": 0, "layer_id": "bus_stops", "feature_name": "Bus Stop" }, "geometry": { "type": "Point", "coordinates": [ -118.249416, 34.051495 ] } },
{ "type": "Feature", "properties": { "STOPNUM": 5137, "STOPNAME": "Sunset / Alvarado", "LAT": 34.077662, "LONG": -118.263989, "LINE_DIR1": "2-W", "LINE_DIR2": "4-W", "LINE_DIR3": 0, "LINE_DIR4": 0, "LINE_DIR5": 0, "LINE_DIR6": 0, "LINE_DIR7": 0, "LINE_DIR8": 0, "LINE_DIR9": 0, "LINE_DIR10": 0, "LINE_DIR11": 0, "LINE_DIR12": 0, "LINE_DIR13": 0, "LINE_DIR14": 0, "layer_id": "bus_stops", "feature_name": "Bus Stop" }, "geometry": { "type": "Point", "coordinates": [ -118.263989, 34.077662 ] } },